9QMQQUM=9Q-9=]5)AQaQ115)AI5Y95)AYQ95)A5)AM5)AMY5)AMY5)AMY5)AMY5)A11Y95)$GPTXT,01,01,02,ANTSTATUS=INIT*
25
$GPRMC,194117.00,V,,,,,,,130722,,,N*
73
$GPVTG,,,,,,,,,N*
30
$GPGGA,194117.00,,,,,0,00,99.99,,,,,,*
6D
$GPGSA,A,1,,,,,,,,,,,,,99.99,99.99,99.99*
30
$GPGSV,4,1,14,02,38,092,26,05,53,017,,11,28,090,,12,07,195,27*
75
$GPGSV,4,2,14,13,59,103,18,15,58,187,28,18,20,310,24,20,28,049,29*
73
$GPGSV,4,3,14,23,13,254,29,24,02,177,,25,233,32,29,61,302,34*
7E
$GPGSV,4,4,14,30,01,066,,51,48,226,*

$GPGLL,,,,,194117.00,V,N*41

$GPRMC,194117.50,A,2712.38629,N,08227.10786,W,0.321,,130722,,,A*
6E
$GPVTG,,T,,M,0.321,N,0.595,K,A*2

$GPGGA,194117.50,2712.38629,N,08227.10786,W,1,06,1.28,-7.6,M,-26.9,M,,*
46
$GPGSA,A,3,29,15,20,18,25,23,,,,.13,1.28,1.71*
0C
$GPGSV,4,1,14,02,38,092,26,05,53017,,11,28,090,21,12,07,195,25*
74
$GPGSV,4,2,14,13,59,103,16,15,58,187,31,18,20,310,30,20,28,049,29*
70
$GPGSV,4,3,14,23,13,254,35,24,0277,,25,14,233,35,29,61,302,34*
74
$GPGSV,4,4,14,30,01,066,,51,48,2,*70

$GPGLL,2712.38629,N,08227.10786,W,19411,A,A*72

$GPTXT,01,01,02,ANTSTATUS=OK*3B

$GPRMC,194118.00,A,2712.38525,N,08227.10571,W,0.200722,,,A*63

$GPVTG,,T,,M,0.200,N,0.371,KGGA,194118.00,2712.38525,N,08227.10571,W,8,-4.8,M,-26.9,M,,*
45
$GPGSA,A,3,29,15,11,20,25,23,,,,,2.13,1.38,1.63*
07
$GPGSV,4,1,14,02,38,092,25,07,,11,28,090,30,12,07,195,25*
77
$GPGSV,4,2,14,13,59,103,14,11,18,20,310,24,20,28,049,29*
77
$GPGSV,4,3,14,23,13,254,37,2,177,,25,14,233,34,29,61,302,34*
77
$GPGSV,4,4,14,30,01,066,,51,0
$GPGLL,2712.38525,N,08227.10571,W,194118.00,A,A*
7D
$GPRMC,194119.00,A,2712.38468,N,08227.11063,W,0.159,,130722,,,A*
62
$GPVTG,,T,,M,0.159,N,0.294,KGPGGA,194119.00,2712.38468,N,08227.11063,W,1,11,0.94,4.4,M,-26.9,M,,*
6B
$GPGSA,A,3,29,13,15,05,02,118,25,23,12,,1.69,0.94,1.41*
01
$GPGSV,4,1,14,02,38,092,28,0,11,28,090,38,12,07,195,25*
73
$GPGSV,4,2,14,13,59,103,40,14,18,20,310,26,20,28,049,31*78

$GPGSV,4,3,14,23,4,35,24,02,177,,25,14,233,35,29,61,302,36*76

$G,4,4,14,30,01,066,,51,48,226,*70

$GPGLL,2712.N,08227.11063,W,194119.00,A,A*73

$GPRMC,194120.00,A,2712.38527,N,08227.11191,W,0.069,,130722,,,A*
6C
$GPVTG,,T,,M,0.069,N,0.127,KA,194120.00,2712.38527,N,08227.11191,W,1,11,0.94,5.4,M,-26.9,M,,*
66
$GPGSA,A,3,29,13,15,05,02,11,18,25,23,12,,1.69,0.94,1.41*
01
$GPGSV,4,1,14,02,38,092,31,0,31,11,28,090,38,12,07,195,25*
78
$GPGSV,4,2,14,13,59,103,41,134,18,20,310,26,20,28,049,31*
79
$GPGSV,4,3,14,23,13,254,35,2,177,,25,14,233,35,29,61,302,35*
75
$GPGSV,4,4,14,30,01,066,,51,*70

$GPGLL,2712.38527,N,08227.11191,W,194120.00,A,A*7F

$GPRMC,194121.00,A,2712.38623,N,08227.11208,W,0.017,,130722,,,A*
60
$GPVTG,,T,,M,0.017,N,0.032,KGPGGA,194121.00,2712.38623,N,08227.11208,W,1,11,0.84,53,M,-26.9,M,,*65

$GPGSA,A,3,29,13,15,05,02,11,2023,12,,1.54,0.84,1.29*
00
$GPGSV,4,1,14,02,38,092,30,017,32,11,28,090,38,12,07,195,24*
7B
$GPGSV,4,2,14,13,59,103,41,187,35,18,20,310,26,20,28,049,31*
78
$GPGSV,4,3,14,23,13,254,35,2177,,25,14,233,34,29,61,302,34*
75
$GPGSV,4,4,14,30,01,066,,51,26,*70

$GPGLL,2712.38623,N,08227.11208,W,194121.00*7A

$GPRMC,194122.00,A,2712.38645,N,08227.11184,W,0.023,,130722,,,A*
63
$GPVTG,,T,,M,0.023,N,0.043,K
$GPGGA,194122.00,2712.38645,N,08227.11184,W,1,11,0.84,5.4,M,-26.9,M,,*
66
$GPGSA,A,3,29,13,15,05,02,1125,23,12,,1.54,0.84,1.29*
00
$GPGSV,4,1,14,02,38,092,29,03,017,31,11,28,090,38,12,07,195,23*
77
$GPGSV,4,2,14,13,59,103,41,187,35,18,20,310,25,20,28,049,31*
7B
$GPGSV,4,3,14,23,13,254,35,2177,,25,14,233,34,29,61,302,34*
75
$GPGSV,4,4,14,30,01,066,,51,26,*70

$GPGLL,2712.38645,N,08227.11184,W,194122.00,A,A*7
$GPRMC,194123.00,A,2712.38668,N,08227.11169,W,0.023,,130722,,,A*
6E
$GPVTG,,T,,M,0.023,N,0.043,K$GPGGA,194123.00,2712.38668,N,08227.11169,W,1,11,0.84,6.2,M,-26.9,M,,*
6E
$GPGSA,A,3,29,13,15,05,02,1125,23,12,,1.54,0.84,1.29*
00
$GPGSV,4,1,14,02,38,092,29,0017,31,11,28,090,36,12,07,195,25*
7F
$GPGSV,4,2,14,13,59,103,42,17,30,18,20,310,25,20,28,049,32*
7E
$GPGSV,4,3,14,23,13,254,35,2,20,25,14,233,35,29,61,302,34*
76
$GPGSV,4,4,14,30,01,066,,51,6,*70

$GPGLL,2712.38668,N,08227.11169,W,194123.00,A,A*73
$GPRMC,194124.00,A,2712.38706,N,08227.11161,W,0.008,,130722,,,A*
61
$GPVTG,,T,,M,0.008,N,0.015,K2F
$GPGGA,194124.00,2712.38706,N,08227.11161,W,1,11,0.84,6.4,M,-26.9,M,,*
6E
$GPGSA,A,3,29,13,15,05,02,115,23,12,,1.54,0.84,1.29*
00
$GPGSV,4,1,14,02,38,092,33,07,31,11,28,090,36,12,07,195,25*74

$GPGS4,2,14,13,59,103,41,15,58,187,30,18,20,310,24,20,9,31*
7F
$GPGSV,4,3,14,23,13,254,35,277,19,25,14,233,35,29,61,302,34*
7C
$GPGSV,4,4,14,30,01,066,,51,*70

$GPGLL,2712.38706,N,08227.11161,4.00,A,A*
75
$GPRMC,194125.00,A,2712.38718,N,08227.11166,W,0.050,,130722,,,A*
65
$GPVTG,,T,,M,0.050,N,0.093,KGA,194125.00,2712.38718,N,08227.11166,W,1,11,0.94,6.9,M,-26.9,M,,*
6B
$GPGSA,A,3,29,13,15,05,02,11,23,12,,1.69,0.94,1.41*
01
$GPGSV,4,1,14,02,38,092,32,031,11,28,090,36,12,07,195,25*
75
$GPGSV,4,2,14,13,59,103,41,17,31,18,20,310,24,20,28,049,31*
7E
$GPGSV,4,3,14,23,13,254,35,2,177,19,25,14,233,35,29,61,302,33*
7B
$GPGSV,4,4,14,30,01,066,,51,*70

$GPGLL,2712.38718,N,08227.11166,W,19,A,A*7C

$GPRMC,194126.00,A,2712.38736,N,08227.11167,W,0.058,,130722,,,A*
63
$GPVTG,,T,,M,0.058,N,0.107,K
$GPGGA,194126.00,2712.38736,N,08227.11167,W,1,11,0.84,7.1,M,-26.9,M,,*
6D
$GPGSA,A,3,29,13,15,05,02,11,23,12,,1.54,0.84,1.29*
00
$GPGSV,4,1,14,02,38,092,31,017,32,11,28,090,36,12,07,195,25*
75
$GPGSV,4,2,14,13,59,103,41,18,187,31,18,20,310,24,20,28,049,31*
7E
$GPGSV,4,3,14,23,13,254,34,277,19,25,14,233,35,29,61,302,33*
7A
$GPGSV,4,4,14,30,01,066,,51,226,*70

$GPGLL,2712.38736,N,08227.11167,W,19.00,A,A*7
2
$GPRMC,194127.00,A,2712.38744,N,08227.11167,W,0.036,,130722,,,A*
6F
$GPVTG,,T,,M,0.036,N,0.067,K
$GPGGA,194127.00,2712.38744,N,08227.11167,W,1,11,0.84,7.3,M,-26.9,M,,*
6B
$GPGSA,A,3,29,13,15,05,02,11,18,25,23,12,,1.54,0.84,1.29*
00
$GPGSV,4,1,14,02,38,092,32,0,32,11,28,090,36,12,07,195,25*
76
$GPGSV,4,2,14,13,59,103,41,1187,31,18,20,310,25,20,28,049,30*
7E
$GPGSV,4,3,14,23,13,254,34,219,25,14,233,35,29,61,302,34*7D

$GPGSV,4,4,14,3001,066,18,51,48,226,*79

$GPGLL,2712.38744,N,082,W,194127.00,A,A*76

$GPRMC,194128.00,A,2712.38745,N,08227.11164,W,0.043,,130722,,,A*
60
$GPVTG,,T,,M,0.043,N,0.080,K
$GPGGA,194128.00,2712.38745,N,08227.11164,W,1,11,0.84,7.3,M,-26.9,M,,*
66
$GPGSA,A,3,29,13,15,05,02,1125,23,12,,1.54,0.84,1.29*
00
$GPGSV,4,1,14,02,38,092,31,07,32,11,28,090,36,12,07,195,25*
75
$GPGSV,4,2,14,13,59,103,41,187,31,18,20,310,24,20,28,049,30*
7F
$GPGSV,4,3,14,23,13,254,35,2,177,18,25,14,233,35,29,61,302,34*
7D
$GPGSV,4,4,14,30,01,066,18,5226,*79

$GPGLL,2712.38745,N,08227.11164,W,194120,A,A*7B

$GPRMC,194129.00,A,2712.38753,N,08227.11160,W,0.071,,130722,,,A*
63
$GPVTG,,T,,M,0.071,N,0.131,K6
$GPGGA,194129.00,2712.38753,N,08227.11160,W,1,11,0.84,7.2,M,-26.9,M,,*
65
$GPGSA,A,3,29,13,15,05,02,11,25,23,12,,1.54,0.84,1.29*00

$GPGSV,4,1,14,02,38,092,5,53,017,32,11,28,090,35,12,07,195,25*76

$GPGSV,4,2,14,13,59,103,41,15,58,187,31,18,20,310,23,20,2849,30*78

$GPGSV,4,3,14,23,13,254,35,24,02,177,18,2233,35,29,61,302,33*
7A
$GPGSV,4,4,14,30,01,066,19,58,226,*78

$GPGLL,2712.38753,N,08227.11160,W,1941290,A,A*79

$GPRMC,194130.00,A,2712.38765,N,08227.11160,W,0.040,,130722,,,A*
6C
$GPVTG,,T,,M,0.040,N,0.074,K$GPGGA,194130.00,2712.38765,N,08227.11160,W,1,11,0.84,7.2,M,-26.9,M,,*
68
$GPGSA,A,3,29,13,15,05,02,1125,23,12,,1.54,0.84,1.29*
00
$GPGSV,4,1,14,02,38,092,31,0,32,11,28,090,36,12,07,195,25*
75
$GPGSV,4,2,14,13,59,103,41,187,32,18,20,310,24,20,28,049,30*
7C
$GPGSV,4,3,14,23,13,254,34,2,25,14,233,35,29,61,302,33*
7B
$GPGSV,4,4,14,30,01,066,18,526,*79

$GPGLL,2712.38765,N,08227.11160,W,194130.00,A,A
$GPRMC,194131.00,A,2712.38780,N,08227.11160,W,0.050,,130722,,,A*
67
$GPVTG,,T,,M,0.050,N,0.092,KGPGGA,194131.00,2712.38780,N,08227.11160,W,1,11,0.84,7.2,M,-26.9,M,,*
62
$GPGSA,A,3,29,13,15,05,02,111.54,0.84,1.29*00

$GPGSV,4,1,14,02,38,092,30,05,53,017,28,090,36,12,07,195,25*
74
$GPGSV,4,2,14,13,59,103,40,18,187,31,18,21,311,25,20,28,049,30*7F

$GPGSV,4,3,14,23,13,254,34,24,02,114,233,35,29,61,302,33*
7B
$GPGSV,4,4,14,30,01,066,17,526,*76

$GPGLL,2712.38780,N,08227.11160,W,194131.00,A,A*
$GPRMC,194132.00,A,2712.38786,N,08227.11153,W,0.036,,130722,,,A*
62
$GPVTG,,T,,M,0.036,N,0.067,K
$GPGGA,194132.00,2712.38786,N,08227.11153,W,1,11,0.84,7.1,M,-26.9,M,,*
64
$GPGSA,A,3,29,13,15,05,02,11,25,23,12,,1.54,0.84,1.29*
00
$GPGSV,4,1,14,02,38,092,30,0017,32,11,28,090,36,12,07,195,25*
74
$GPGSV,4,2,14,13,59,103,40,187,31,18,21,311,25,20,28,049,30*
7F
$GPGSV,4,3,14,23,13,254,35,277,18,25,14,233,35,29,61,302,33*7A

$GPG4,30,01,066,18,51,48,226,*79

$GPGLL,2712.38786,1153,W,194132.00,A,A*7B

$GPRMC,194133.00,A,2712.38792,N,08227.11149,W,0.004,,130722,,,A*
6C
$GPVTG,,T,,M,0.004,N,0.007,K$GPGGA,194133.00,2712.38792,N,08227.11149,W,1,11,0.84,7.0,M,-26.9,M,,*
6A
$GPGSA,A,3,29,13,15,05,02,110,18,25,23,12,,1.54,0.84,1.29*
00
$GPGSV,4,1,14,02,38,092,30,0,017,32,11,28,090,36,12,07,195,25*
74
$GPGSV,4,2,14,13,59,103,40,1187,31,18,21,311,25,20,27,049,30*
70
$GPGSV,4,3,14,23,13,254,34,27,17,25,14,233,35,29,61,302,33*
74
$GPGSV,4,4,14,30,01,066,19,5,*78

$GPGLL,2712.38792,N,08227.11149,W,1943.00,A,A*
74
$GPRMC,194134.00,A,2712.38796,N,08227.11145,W,0.035,,130722,,,A*
61
$GPVTG,,T,,M,0.035,N,0.066,K5
$GPGGA,194134.00,2712.38796,N,08227.11145,W,1,11,0.84,7.0,M,-26.9,M,,*
65
$GPGSA,A,3,29,13,15,05,02,1118,25,23,12,,1.54,0.84,1.29*00

$GPGSV,4,1,14,38,092,30,05,53,017,32,11,28,090,36,12,07,195,25*74GPGSV,4,2
,14,13,59,103,40,15,58,187,31,1811,25,20,27,049,30*
70
$GPGSV,4,3,14,23,13,254,34,277,16,25,14,233,35,29,61,302,33*
75
$GPGSV,4,4,14,30,01,066,19,526,*78

$GPGLL,2712.38796,N,08227.11145,W,194A*7B

$GPRMC,194135.00,A,2712.38790,N,08227.11145,W,0.026,,130722,,,A*
64
$GPVTG,,T,,M,0.026,N,0.048,K,194135.00,2712.38790,N,08227.11145,W,1,11,0.94,7.1,M,-26.9,M,,*
62
$GPGSA,A,3,29,13,15,05,02,11,18,25,23,12,,1.69,0.94,1.41*
01
$GPGSV,4,1,14,02,38,092,30,03,11,28,090,36,12,07,195,25*
75
$GPGSV,4,2,14,13,59,103,40,187,31,18,21,311,25,20,27,049,30*
70
$GPGSV,4,3,14,23,13,254,35,2177,16,25,14,233,35,29,61,302,33*
74
$GPGSV,4,4,14,30,01,066,18,548,226,*79

$GPGLL,2712.38790,N,08227.11145,W,19.00,A,A*7C

$GPRMC,194136.00,A,2712.38792,N,08227.11141,W,0.023,,130722,,,A*
64
$GPVTG,,T,,M,0.023,N,0.043,KGPGGA,194136.00,2712.38792,N,08227.11141,W,1,11,0.84,7.0,M,-26.9,M,,*
67
$GPGSA,A,3,29,13,15,05,02,11,18,25,23,12,,1.54,0.84,1.29*
00
$GPGSV,4,1,14,02,38,092,30,0017,32,11,28,090,35,12,07,195,24*
76
$GPGSV,4,2,14,13,59,103,40,187,31,18,21,311,25,20,27,049,30*
70
$GPGSV,4,3,14,23,13,255,34,27,16,25,14,233,35,29,61,302,33*
74
$GPGSV,4,4,14,30,01,066,18,5,*79

$GPGLL,2712.38792,N,08227.11141,W,194136.00,,A*79

$GPRMC,194137.00,A,2712.38789,N,08227.11138,W,0.051,,130722,,,A*
64
$GPVTG,,T,,M,0.051,N,0.095,KB
$GPGGA,194137.00,2712.38789,N,08227.11138,W,1,11,0.84,7.0,M,-26.9,M,,*
62
$GPGSA,A,3,29,13,15,05,02,11,18,25,23,12,,1.54,0.84,1.29*
00
$GPGSV,4,1,14,02,38,092,30,017,33,11,28,090,35,12,07,195,24*
77
$GPGSV,4,2,14,13,59,103,40,17,31,18,21,311,24,20,27,049,30*71

$GPGSV,4,3,14,23,13,5,34,24,02,177,15,25,14,233,35,29,61,302,33*77

SV,4,4,14,30,01,066,19,51,48,226,*78

$GPGLL,2712.38789,N,08227.11138,W,194137.00,A,A*7C

$GPRMC,194138.00,A,2712.38786,N,08227.11138,W,0.022,,130722,,,A*
60
$GPVTG,,T,,M,0.022,N,0.041,K
$GPGGA,194138.00,2712.38786,N,08227.11138,W,1,11,0.84,7.1,M,-26.9,M,,*
63
$GPGSA,A,3,29,13,15,05,02,1123,12,,1.54,0.84,1.29*
00
$GPGSV,4,1,14,02,38,092,30,0017,32,11,28,090,35,12,07,195,24*
76
$GPGSV,4,2,14,13,59,103,40,131,18,21,311,24,20,27,049,30*
71
$GPGSV,4,3,14,23,13,255,34,277,15,25,14,232,35,29,61,302,33*
76
$GPGSV,4,4,14,30,01,066,20,5226,*72

$GPGLL,2712.38786,N,08227.11138,W,194138.00,A,AC
$GPRMC,194139.00,A,2712.38789,N,08227.11135,W,0.022,,130722,,,A*
63
$GPVTG,,T,,M,0.022,N,0.040,KGPGGA,194139.00,2712.38789,N,08227.11135,W,1,11,0.84,7.0,M,-26.9,M,,*
61
$GPGSA,A,3,29,13,15,05,02,1125,23,12,,1.54,0.84,1.29*00

$GPGSV,4,1,14,02,38,092,30,05,017,32,11,28,090,35,12,07,195,24*76

$GPGSV,4,2,13,59,103,40,15,58,187,31,18,21,311,25,20,27,049,30*70

$4,3,14,23,13,255,34,24,02,177,15,25,14,232,35,29,61,302,*76

$GPGSV,4,4,14,30,01,066,19,51,48,226,*78

$GPGLL,279,N,08227.11135,W,194139.00,A,A*7F

$GPRMC,194140.00,A,2712.38783,N,08227.11133,W,0.044,,130722,,,A*
61
$GPVTG,,T,,M,0.044,N,0.082,KGPGGA,194140.00,2712.38783,N,08227.11133,W,1,11,0.84,7.0,M,-26.9,M,,*
63
$GPGSA,A,3,29,13,15,05,02,1125,23,12,,1.54,0.84,1.29*
00
$GPGSV,4,1,14,02,38,092,30,017,32,11,28,090,35,12,07,195,25*
77
$GPGSV,4,2,14,13,59,103,40,1,187,32,18,21,311,24,20,27,049,30*
72
$GPGSV,4,3,14,23,13,255,34,25,14,232,35,29,61,302,33*
76
$GPGSV,4,4,14,30,01,066,19,56,*78

$GPGLL,2712.38783,N,08227.11133,W,0.00,A,A*7D

$GPRMC,194141.00,A,2712.38785,N,08227.11130,W,0.021,,130722,,,A*
66
$GPVTG,,T,,M,0.021,N,0.039,KA
$GPGGA,194141.00,2712.38785,N,08227.11130,W,1,11,0.84,6.9,M,-26.9,M,,*
6F
$GPGSA,A,3,29,13,15,05,02,118,25,23,12,,1.54,0.84,1.29*
00
$GPGSV,4,1,14,02,38,092,30,03,017,32,11,28,090,35,12,07,195,25*
77
$GPGSV,4,2,14,13,59,103,40,17,31,18,21,311,24,20,27,049,30*
71
$GPGSV,4,3,14,23,13,255,34,27,15,25,14,232,35,29,61,302,33*
76
$GPGSV,4,4,14,30,01,066,19,56,*78

$GPGLL,2712.38785,N,08227.11130,W,1941.00,A,A*
79
$GPRMC,194142.00,A,2712.38786,N,08227.11127,W,0.020,,130722,,,A*
61
$GPVTG,,T,,M,0.020,N,0.038,KGPGGA,194142.00,2712.38786,N,08227.11127,W,1,11,0.84,6.9,M,-26.9,M,,*
69
$GPGSA,A,3,29,13,15,05,02,1125,23,12,,1.54,0.84,1.29*
00
$GPGSV,4,1,14,02,38,092,30,032,11,28,090,35,12,07,195,25*
77
$GPGSV,4,2,14,13,59,103,40,1187,31,18,21,311,24,20,27,049,30*71

$GPGSV,43,13,255,34,24,02,177,13,25,14,232,35,29,61,302,33*70

$GSV,4,4,14,30,01,065,19,51,48,226,33*7B

$GPGLL,2712.38786,N,08227.11127,W,194142.00,A,A*7
$GPRMC,194143.00,A,2712.38784,N,08227.11127,W,0.044,,130722,,,A*
60
$GPVTG,,T,,M,0.044,N,0.082,K
$GPGGA,194143.00,2712.38784,N,08227.11127,W,1,11,0.84,6.9,M,-26.9,M,,*
6A
$GPGSA,A,3,29,13,15,05,02,1118,25,23,12,,1.54,0.84,1.29*
00
$GPGSV,4,1,14,02,38,092,30,0,53,017,32,11,28,090,35,12,07,195,25*
77
$GPGSV,4,2,14,13,59,103,40,17,31,18,21,311,25,20,27,049,30*
70
$GPGSV,4,3,14,23,13,255,34,27,10,25,14,232,35,29,61,302,33*
73
$GPGSV,4,4,14,30,01,065,18,5*7D

$GPGLL,2712.38784,N,08227.11127,W,194143.00,A,A*7C

$GPRMC,194144.00,A,2712.38789,N,08227.11124,W,0.009,,130722,,,A*
60
$GPVTG,,T,,M,0.009,N,0.017,K
$GPGGA,194144.00,2712.38789,N,08227.11124,W,1,11.84,6.7,M,-26.9,M,,*
6D
$GPGSA,A,3,29,13,15,05,02,118,25,23,12,,1.54,0.84,1.29*
00
$GPGSV,4,1,14,02,38,092,30,07,33,11,28,090,36,12,07,195,25*
75
$GPGSV,4,2,14,13,59,103,40,118,21,311,25,20,27,049,30*
73
$GPGSV,4,3,14,23,13,255,34,2177,09,25,14,232,35,29,61,302,33*
7B
$GPGSV,4,4,14,30,01,065,16,5,226,34*73

$GPGLL,2712.38789,N,08227.11124,W,1941,A,A*75

$GPRMC,194145.00,A,2712.38782,N,08227.11121,W,0.026,,130722,,,A*
62
$GPVTG,,T,,M,0.026,N,0.049,KGGA,194145.00,2712.38782,N,08227.11121,W,1,11,0.84,6.7,M,-26.9,M,,*
62
$GPGSA,A,3,29,13,15,05,02,115,23,12,,1.54,0.84,1.29*
00
$GPGSV,4,1,14,02,38,092,30,0,33,11,28,090,35,12,07,195,25*
76
$GPGSV,4,2,14,13,59,103,40,1,187,32,18,21,311,26,20,27,049,30*
70
$GPGSV,4,3,14,23,13,255,34,210,25,14,232,35,29,61,302,34*
74
$GPGSV,4,4,14,30,01,065,15,526,34*70

$GPGLL,2712.38782,N,08227.11121,W,194145.00,7A
$GPRMC,194146.00,A,2712.38788,N,08227.11120,W,0.026,,130722,,,A*
6A
$GPVTG,,T,,M,0.026,N,0.048,K
$GPGGA,194146.00,2712.38788,N,08227.11120,W,1,11,0.84,6.7,M,-26.9,M,,*
6A
$GPGSA,A,3,29,13,15,05,02,11,25,23,12,,1.54,0.84,1.29*
00
$GPGSV,4,1,14,02,38,092,30,03,017,32,11,28,090,36,12,07,195,26*
77
$GPGSV,4,2,14,13,59,103,40,1,31,18,21,311,26,20,27,049,30*
73
$GPGSV,4,3,14,23,13,255,34,2177,10,25,14,232,35,29,61,302,34*
74
$GPGSV,4,4,14,30,01,065,14,5226,34*71

$GPGLL,2712.38788,N,08227.11120,W,194146.00,$GPRMC,194147.00,A,2712.38790,N,08227.11120,W,0.035,,130722,,,A*
60
$GPVTG,,T,,M,0.035,N,0.064,K7
$GPGGA,194147.00,2712.38790,N,08227.11120,W,1,11,0.84,6.7,M,-26.9,M,,*
62
$GPGSA,A,3,29,13,15,05,02,11,20,18,22,,1.54,0.84,1.29*00

$GPGSV,4,1,14,02,38,092,30,05,53,01,11,28,090,35,12,07,195,26*
74
$GPGSV,4,2,14,13,59,103,40,131,18,21,311,26,20,27,049,30*
73
$GPGSV,4,3,14,23,13,255,34,2,25,14,232,35,29,61,302,34*7C

$GPGSV,4,4,14,30,01,065,14,51,48,226,34*71

$GPGLL,2712.38790,N,08227.11120,W,19400,A,A*7A

$GPRMC,194148.00,A,2712.38785,N,08227.11119,W,0.013,,130722,,,A*
65
$GPVTG,,T,,M,0.013,N,0.023,K194148.00,2712.38785,N,08227.11119,W,1,11,0.84,6.8,M,-26.9,M,,*
6C
$GPGSA,A,3,29,13,15,05,02,11,23,12,,1.54,0.84,1.29*
00
$GPGSV,4,1,14,02,38,092,30,0,017,32,11,28,090,35,12,07,195,26*74

$GPGSV,4,2,14,13,59,103,40,15,58,1,31,18,21,311,26,20,27,049,30*
73
$GPGSV,4,3,14,23,13,255,34,2177,08,25,14,232,35,29,61,302,33*
7A
$GPGSV,4,4,14,30,01,065,14,5226,34*
71
$GPGLL,2712.38785,N,08227.114148.00,A,A*
7B
$GPRMC,194149.00,A,2712.38785,N,08227.11116,W,0.012,,130722,,,A*
6A
$GPVTG,,T,,M,0.012,N,0.022,KGGA,194149.00,2712.38785,N,08227.11116,W,1,11,0.84,6.7,M,-26.9,M,,*
6D
$GPGSA,A,3,29,13,15,05,02,11,23,12,,1.54,0.84,1.29*00

$GPGSV,4,1,14,02,2,30,05,53,017,32,11,28,090,35,12,07,195,26*74

$,4,2,14,13,59,103,40,15,58,187,31,18,21,,26,20,27,049,30*
73
$GPGSV,4,3,14,23,13,255,34,2177,08,25,14,232,35,29,61,302,34*
7D
$GPGSV,4,4,14,30,01,065,14,58,226,34*
71
$GPGLL,2712.38785,N,08227.11194149.00,A,A*
75
$GPRMC,194150.00,A,2712.38781,N,08227.11115,W,0.016,,130722,,,A*
61
$GPVTG,,T,,M,0.016,N,0.030,K$GPGGA,194150.00,2712.38781,N,08227.11115,W,1,11,0.84,6.6,M,-26.9,M,,*
63
$GPGSA,A,3,29,13,15,05,02,11,25,23,12,,1.54,0.84,1.29*
00
$GPGSV,4,1,15,02,38,092,30,033,11,28,090,35,12,07,195,26*
74
$GPGSV,4,2,15,13,59,103,40,187,31,18,21,311,26,20,27,049,30*
72
$GPGSV,4,3,15,23,13,255,34,2,,25,14,232,35,29,61,302,34*
74
$GPGSV,4,4,15,30,01,065,12,4249,34,51,48,226,34*
47
$GPGLL,2712.38781,N,08227.1115,W,194150.00,A,A*7A

$GPRMC,194151.00,A,2712.38780,N,08227.11115,W,0.043,,130722,,,A*
61
$GPVTG,,T,,M,0.043,N,0.080,KGPGGA,194151.00,2712.38780,N,08227.11115,W,1,11,0.84,6.6,M,-26.9,M,,*
63
$GPGSA,A,3,29,13,15,05,02,11,25,23,12,,1.54,0.84,1.29*
00
$GPGSV,4,1,15,02,38,092,30,0,33,11,28,090,35,12,07,195,26*
74
$GPGSV,4,2,15,13,59,103,40,187,31,18,21,311,26,20,27,049,30*
72
$GPGSV,4,3,15,23,13,255,34,2177,,25,14,232,35,29,61,302,34*
74
$GPGSV,4,4,15,30,01,065,12,4,35,51,48,226,34*
46
$GPGLL,2712.38780,N,08227.11194151.00,A,A*
7A
$GPRMC,194152.00,A,2712.38777,N,08227.11115,W,0.028,,130722,,,A*
67
$GPVTG,,T,,M,0.028,N,0.052,KGPGGA,194152.00,2712.38777,N,08227.11115,W,1,11,0.84,6.5,M,-26.9,M,,*
6B
$GPGSA,A,3,29,13,15,05,02,1125,23,12,,1.54,0.84,1.29*
00
$GPGSV,4,1,15,02,38,092,29,03,017,32,11,28,090,35,12,07,195,25*
7E
$GPGSV,4,2,15,13,59,103,40,1,187,31,18,21,311,25,20,27,049,30*71

$GPGSV,4,3,15,23,255,34,24,02,177,,25,14,232,35,29,61,302,33*73

PGSV,4,4,15,30,01,065,11,48,27,249,35,51,48,226,5
$GPGLL,2712.38777,N,08227.11115,W,194152.00,A,A*
71
$GPRMC,194153.00,A,2712.38777,N,08227.11114,W,0.014,,130722,,,A*
68
$GPVTG,,T,,M,0.014,N,0.026,K,194153.00,2712.38777,N,08227.11114,W,1,11,0.84,6.4,M,-26.9,M,,*
6A
$GPGSA,A,3,29,13,15,05,02,1118,25,23,12,,1.54,0.84,1.29*
00
$GPGSV,4,1,15,02,38,092,29,0,33,11,28,090,35,12,07,195,26*
7C
$GPGSV,4,2,15,13,59,103,40,1187,31,18,21,311,25,20,27,049,30*
71
$GPGSV,4,3,15,23,13,255,34,202,177,,25,14,232,35,29,61,302,33*
73
$GPGSV,4,4,15,30,01,065,12,449,35,51,48,226,34*
46
$GPGLL,2712.38777,N,08227.11114,,194153.00,A,A*71

$GPRMC,194154.00,A,2712.38781,N,08227.11113,W,0.047,,130722,,,A*
67
$GPVTG,,T,,M,0.047,N,0.087,K$GPGGA,194154.00,2712.38781,N,08227.11113,W,1,11,0.84,6.3,M,-26.9,M,,*
64
$GPGSA,A,3,29,13,15,05,02,1125,23,12,,1.54,0.84,1.29*00

$GPGSV,4,1,15,02,38,092,29,05,53,017,32,11,28,090,35,12,07,195,26*7D

$GPGSV,4,2,15,13,59,103,39,15,58,187,31,18,21,311,25,20,27,049,30*F

$GPGSV,4,3,15,23,13,255,34,24,02,177,,25,14,232,35,29,61,302,34*74

$GPGSV,4,4,15,30,01,065,13,48,27,249,3548,226,34*47

$GPGLL,2712.38781,N,08227.11113,W,194154.A,A*78

$GPRMC,194155.00,A,2712.38782,N,08227.11112,W,0.018,,130722,,,A*
6E
$GPVTG,,T,,M,0.018,N,0.033,K$GPGGA,194155.00,2712.38782,N,08227.11112,W,1,11,0.84,6.2,M,-26.9,M,,*
66
$GPGSA,A,3,29,13,15,05,02,1118,25,23,12,,1.54,0.84,1.29*
00
$GPGSV,4,1,15,02,38,092,29,03,017,32,11,28,090,35,12,07,195,26*
7D
$GPGSV,4,2,15,13,59,103,39,1,18,21,311,25,20,27,049,29*
77
$GPGSV,4,3,15,23,13,255,34,2177,,25,14,232,35,29,61,302,34*74

$GPGSV,4,4,15,30,12,48,27,249,35,51,48,226,33*41

$GP712.38782,N,08227.11112,W,194155.00,
$GPRMC,194156.00,A,2712.38784,N,08227.11111,W,0.019,,130722,,,A*
69
$GPVTG,,T,,M,0.019,N,0.036,KE
$GPGGA,194156.00,2712.38784,N,08227.11111,W,1,11,0.84,6.2,M,-26.9,M,,*
60
$GPGSA,A,3,29,13,15,05,02,118,25,23,12,,1.54,0.84,1.29*
00
$GPGSV,4,1,15,02,38,092,29,011,28,090,35,12,07,195,25*
7E
$GPGSV,4,2,15,13,59,103,39,131,18,21,311,26,20,27,049,29*
74
$GPGSV,4,3,15,23,13,255,34,277,,25,14,232,34,29,61,302,33*
72
$GPGSV,4,4,15,30,01,065,13,49,35,51,48,226,34*
47
$GPGLL,2712.38784,N,08227.11,W,194156.00,A,A*
7D
$GPRMC,194157.00,A,2712.38787,N,08227.11111,W,0.039,,130722,,,A*
69
$GPVTG,,T,,M,0.039,N,0.072,K$GPGGA,194157.00,2712.38787,N,08227.11111,W,1,11,0.84,6.1,M,-26.9,M,,*
61
$GPGSA,A,3,29,13,15,05,02,11,23,12,,1.54,0.84,1.29*
00
$GPGSV,4,1,15,02,38,092,29,017,32,11,28,090,35,12,07,195,25*
7E
$GPGSV,4,2,15,13,59,103,39,1,187,31,18,21,311,26,20,27,049,29*
74
$GPGSV,4,3,15,23,13,255,34,225,14,232,35,29,61,302,33*73

$GPGSV,4,4,15,,01,065,13,48,27,249,35,51,48,226,34*47

$GPGLL,2712787,N,08227.11111,W,194157.00,A,A*7F

$GPRMC,194158.00,A,2712.38788,N,08227.11110,W,0.023,,130722,,,A*
63
$GPVTG,,T,,M,0.023,N,0.042,KGPGGA,194158.00,2712.38788,N,08227.11110,W,1,11,0.84,6.0,M,-26.9,M,,*
61
$GPGSA,A,3,29,13,15,05,02,118,25,23,12,,1.54,0.84,1.29*
00
$GPGSV,4,1,15,02,38,092,29,03,017,32,11,28,090,35,12,07,195,25*
7E
$GPGSV,4,2,15,13,59,103,39,1,31,18,21,311,26,20,27,049,29*
74
$GPGSV,4,3,15,23,13,255,34,22,177,,25,14,232,34,29,61,302,33*
72
$GPGSV,4,4,15,30,01,065,12,49,35,51,48,226,34*
46
$GPGLL,2712.38788,N,08227.11194158.00,A,A*
7E
$GPRMC,194159.00,A,2712.38788,N,08227.11108,W,0.011,,130722,,,A*
6A
$GPVTG,,T,,M,0.011,N,0.021,K
$GPGGA,194159.00,2712.38788,N,08227.11108,W,1,11,0.84,5.9,M,-26.9,M,,*
63
$GPGSA,A,3,29,13,15,05,02,11,20,18,25,23,12,,1.54,0.84,1.29*00

$GPGSV,4,1,15,0092,29,05,53,017,32,11,28,090,35,12,07,195,26*7DV,4,2,15,13
,59,103,39,15,58,187,31,18,21,3120,27,049,29*
74
$GPGSV,4,3,15,23,13,255,34,2177,,25,14,232,34,29,61,302,34*
75
$GPGSV,4,4,15,30,01,065,10,4249,35,51,48,226,34*
44
$GPGLL,2712.38788,N,08227.11,194159.00,A,A*
76
$GPRMC,194200.00,A,2712.38785,N,08227.11106,W,0.019,,130722,,,A*
6E
$GPVTG,,T,,M,0.019,N,0.035,K$GPGGA,194200.00,2712.38785,N,08227.11106,W,1,11,0.84,5.9,M,-26.9,M,,*
6F
$GPGSA,A,3,29,13,15,05,02,1123,12,,1.54,0.84,1.29*
00
$GPGSV,4,1,15,02,38,092,29,0,32,11,28,090,35,12,07,195,26*
7D
$GPGSV,4,2,15,13,59,103,39,1,187,31,18,21,311,26,20,27,049,29*
74
$GPGSV,4,3,15,23,13,255,34,2,,25,14,232,34,29,61,302,34*
75
$GPGSV,4,4,15,30,01,065,10,451,48,226,34*44

$GPGLL,2712.38785,N,08227.11106,W,200.00,A,A*7A

$GPRMC,194201.00,A,2712.38785,N,08227.11103,W,0.032,,130722,,,A*
63
$GPVTG,,T,,M,0.032,N,0.060,K$GPGGA,194201.00,2712.38785,N,08227.11103,W,1,11,0.84,5.9,M,-26.9,M,,*
6B
$GPGSA,A,3,29,13,15,05,02,1125,23,12,,1.54,0.84,1.28*
01
$GPGSV,4,1,15,02,38,092,29,017,32,11,28,090,35,12,07,195,26*
7D
$GPGSV,4,2,15,13,59,103,39,118,21,311,26,20,27,049,30*
7F
$GPGSV,4,3,15,23,13,255,34,25,14,232,34,29,61,302,34*
75
$GPGSV,4,4,15,30,01,065,10,449,34,51,48,226,34*4
5
$GPGLL,2712.38785,N,08227.111.00,A,A*7E

$GPRMC,194202.00,A,2712.38784,N,08227.11099,W,0.018,,130722,,,A*
6B
$GPVTG,,T,,M,0.018,N,0.033,KGPGGA,194202.00,2712.38784,N,08227.11099,W,1,11,0.84,5.8,M,-26.9,M,,*
6A
$GPGSA,A,3,29,13,15,05,02,113,12,,1.54,0.84,1.28*
01
$GPGSV,4,1,15,02,38,092,30,07,32,11,28,090,35,12,07,195,26*
75
$GPGSV,4,2,15,13,59,103,39,1,31,18,21,311,27,20,27,049,30*7D

$GPGSV,4,3,15,23,13,255,,02,177,,25,14,232,34,29,61,302,34*75

$GPGSV,4,401,065,10,48,27,249,34,51,48,226,34*45

$GPGLL,2712.3N,08227.11099,W,194202.00,A,A*7E

$GPRMC,194203.00,A,2712.38784,N,08227.11097,W,0.039,,130722,,,A*
67
$GPVTG,,T,,M,0.039,N,0.073,KGPGGA,194203.00,2712.38784,N,08227.11097,W,1,11,0.84,5.8,M,-26.9,M,,*
65
$GPGSA,A,3,29,13,15,05,02,1125,23,12,,1.54,0.84,1.28*
01
$GPGSV,4,1,15,02,38,092,30,07,32,11,28,090,35,12,07,195,25*
76
$GPGSV,4,2,15,13,59,103,39,1187,31,18,21,311,27,20,27,049,29*75

$GPGSV,4,3,15,2,255,34,24,02,177,,25,14,232,34,29,6,34*
75
$GPGSV,4,4,15,30,01,065,10,48,27,249,34,51,48,226,34*
45
$GPGLL,2712.38784,N,08227.11,194203.00,A,A*
71
$GPRMC,194204.00,A,2712.38784,N,08227.11096,W,0.026,,130722,,,A*
6F
$GPVTG,,T,,M,0.026,N,0.048,K
$GPGGA,194204.00,2712.38784,N,08227.11W,1,11,0.84,5.8,M,-26.9,M,,*
63
$GPGSA,A,3,29,13,15,05,02,1125,23,12,,1.54,0.84,1.28*
01
$GPGSV,4,1,15,02,38,092,30,03,017,32,11,28,090,35,12,07,195,25*
76
$GPGSV,4,2,15,13,59,103,39,17,31,18,21,311,27,20,27,049,29*
75
$GPGSV,4,3,15,23,13,255,34,277,,25,14,232,34,29,61,302,34*
75
$GPGSV,4,4,15,30,01,065,10,49,35,51,48,226,34*
44
$GPGLL,2712.38784,N,08227.1194204.00,A,A*
77
$GPRMC,194205.00,A,2712.38782,N,08227.11094,W,0.046,,130722,,,A*
6C
$GPVTG,,T,,M,0.046,N,0.085,K
$GPGGA,194205.00,2712.38782,N,08227.11094,W,1,11,0.84,5.8,M,-26.9,M,,*
66
$GPGSA,A,3,29,13,15,05,02,11,20,18,212,,1.54,0.84,1.28*
01
$GPGSV,4,1,15,02,38,092,30,0017,31,11,28,090,35,12,07,195,25*
75
$GPGSV,4,2,15,13,59,103,39,1,31,18,21,311,27,20,27,049,29*
75
$GPGSV,4,3,15,23,13,255,34,27,,25,14,232,34,29,61,302,34*
75
$GPGSV,4,4,15,30,01,065,10,4249,35,51,48,226,34*44

$GPGLL,2712.38782,N,01094,W,194205.00,A,A*72

$GPRMC,194206.00,A,2712.38783,N,08227.11094,W,0.048,,130722,,,A*
60
$GPVTG,,T,,M,0.048,N,0.089,K2E
$GPGGA,194206.00,2712.38783,N,08227.11094,W,1,11,0.84,5.8,M,-26.9,M,,*
64
$GPGSA,A,3,29,13,15,05,02,11,25,23,12,,1.54,0.84,1.28*
01
$GPGSV,4,1,15,02,38,092,30,017,31,11,28,090,35,12,07,195,25*
75
$GPGSV,4,2,15,13,59,103,39,18,187,32,18,21,311,27,20,27,049,29*
76
$GPGSV,4,3,15,23,13,255,34,2,,25,14,232,34,29,61,302,34*
75
$GPGSV,4,4,15,30,01,065,10,4,35,51,48,226,34*
44
$GPGLL,2712.38783,N,08227.11,194206.00,A,A*
70
$GPRMC,194207.00,A,2712.38785,N,08227.11094,W,0.033,,130722,,,A*
6B
$GPVTG,,T,,M,0.033,N,0.060,KA,194207.00,2712.38785,N,08227.11094,W,1,11,0.84,5.7,M,-26.9,M,,*
6C
$GPGSA,A,3,29,13,15,05,02,1123,12,,1.54,0.84,1.28*
01
$GPGSV,4,1,15,02,38,092,30,0,31,11,28,090,35,12,07,195,26*76

$GPGSV,4,2,15,139,103,39,15,58,187,31,18,21,311,27,20,27,049,29*75

SV,4,3,15,23,13,255,34,24,02,177,,25,14,232,34,29,61,302,34*
75
$GPGSV,4,4,15,30,01,065,10,48,279,35,51,48,226,34*
44
$GPGLL,2712.38785,N,08227.114207.00,A,A*77

$GPRMC,194208.00,A,2712.38783,N,08227.11092,W,0.026,,130722,,,A*
60
$GPVTG,,T,,M,0.026,N,0.048,K
$GPGGA,194208.00,2712.38783,N,08227.11092,W,1,11,0.84,5.7,M,-26.9,M,,*
63
$GPGSA,A,3,29,13,15,05,02,115,23,12,,1.54,0.84,1.28*
01
$GPGSV,4,1,15,02,38,092,30,031,11,28,090,35,12,07,195,25*
75
$GPGSV,4,2,15,13,59,103,39,158,187,31,18,21,311,27,20,27,049,28*
74
$GPGSV,4,3,15,23,13,255,34,27,,25,14,232,34,29,61,302,34*
75
$GPGSV,4,4,15,30,01,065,16,47,249,35,51,48,226,34*
42
$GPGLL,2712.38783,N,08227.1194208.00,A,A*78

$GPRMC,194209.00,A,2712.38785,N,08227.11090,W,0.025,,130722,,,A*
66
$GPVTG,,T,,M,0.025,N,0.046,K
$GPGGA,194209.00,2712.38785,N,08227.11090,W,1,11,0.84,5.6,M,-26.9,M,,*
67
$GPGSA,A,3,29,13,15,05,02,11,18,25,23,12,,1.54,0.84,1.28*
01
$GPGSV,4,1,15,02,38,092,29,0,31,11,28,090,35,12,07,195,25*
7D
$GPGSV,4,2,15,13,60,102,39,18,187,31,18,21,311,27,20,27,049,28*
7F
$GPGSV,4,3,15,23,13,255,34,225,14,232,34,29,61,302,34*
75
$GPGSV,4,4,15,30,01,065,16,435,51,48,226,34*42

$GPGLL,2712.38785,N,08227.11090,4209.00,A,A*7D

$GPRMC,194210.00,A,2712.38784,N,08227.11091,W,0.018,,130722,,,A*
60
$GPVTG,,T,,M,0.018,N,0.033,K
$GPGGA,194210.00,2712.38784,N,08227.11091,W,1,11,0.84,5.6,M,-26.9,M,,*
6F
$GPGSA,A,3,29,13,15,05,02,1123,12,,1.53,0.84,1.28*
06
$GPGSV,4,1,15,02,38,092,29,0,31,11,28,090,35,12,07,195,25*
7D
$GPGSV,4,2,15,13,60,102,39,187,32,18,21,311,27,20,27,049,28*
7C
$GPGSV,4,3,15,23,13,255,34,277,,25,14,232,34,29,61,302,33*72

$GPGSV,4,4,15,30,01,065,48,27,249,35,51,48,226,34*42

$GPGLL,2712.38784,N,0227.11091,W,194210.00,A,A*75

$GPRMC,194211.00,A,2712.38784,N,08227.11090,W,0.043,,130722,,,A*
6E
$GPVTG,,T,,M,0.043,N,0.081,K,A*2D

$GA,194211.00,2712.38784,N,08227.11090,W,1,11,0.84,5.5,M,-M,,*6C

$GPGSA,A,3,29,13,15,05,02,11,20,18,25,23,12,,1.50.84,1.28*06

$GPGSV,4,1,15,02,38,092,29,05,53,017,311,28,090,35,12,07,195,24*7C

$GPGSV5,13,60,102,39,15,58,187,32,18,21,317,20,27,049,28*
7C
$GPGSV,4,3,15,23,13,255,34,2177,,25,14,232,34,29,61,302,33*
72
$GPGSV,4,4,15,30,01,065,16,435,51,48,226,34*
42
$GPGLL,2712.38784,N,08227.11194211.00,A,A*
75
$GPRMC,194212.00,A,2712.38786,N,08227.11089,W,0.024,,130722,,,A*
66
$GPVTG,,T,,M,0.024,N,0.044,KPGGA,194212.00,2712.38786,N,08227.11089,0.84,5.4,M,-26.9,M,,*
64
$GPGSA,A,3,29,13,15,05,02,11,25,23,12,,1.53,0.84,1.28*
06
$GPGSV,4,1,15,02,38,092,30,031,11,28,090,35,12,07,195,24*
74
$GPGSV,4,2,15,13,60,102,39,1187,31,18,21,311,27,20,27,049,28*
7F
$GPGSV,4,3,15,23,13,255,34,2,177,,25,14,232,34,29,61,302,34*
75
$GPGSV,4,4,15,30,01,065,16,4,35,51,48,226,34*
42
$GPGLL,2712.38786,N,08227.110,A,A*
7C
$GPRMC,194213.00,A,2712.38787,N,08227.11089,W,0.044,,130722,,,A*
60
$GPVTG,,T,,M,0.044,N,0.082,K*29

$GPGGA,194213.00,2712.38787,N,0822,1,11,0.84,5.4,M,-26.9,M,,*
64
$GPGSA,A,3,29,13,15,05,02,1118,25,23,12,,1.53,0.84,1.28*
06
$GPGSV,4,1,15,02,38,092,30,0,017,30,11,28,090,35,12,07,195,25*
74
$GPGSV,4,2,15,13,60,102,39,17,31,18,21,311,27,20,27,049,28*
7F
$GPGSV,4,3,15,23,13,255,34,277,,25,14,232,34,29,61,302,33*72

$GPGSV,4,4,30,01,065,16,48,27,249,35,51,48,226,33*45

$GPGLL,22.38787,N,08227.11089,W,194213.00,A,A*7C
$GPRMC,194214.00,A,2712.38788,N,08227.11088,W,0.027,,130722,,,A*
6C
$GPVTG,,T,,M,0.027,N,0.050,K23
$GPGGA,194214.00,2712.38788,N,08227.11088,W,1,11,0.84,5.3,M,-26.9,M,,*
6A
$GPGSA,A,3,29,13,15,05,02,11,23,12,,1.53,0.84,1.28*
06
$GPGSV,4,1,15,02,38,092,30,017,30,11,28,090,35,12,07,195,25*
74
$GPGSV,4,2,15,13,60,102,39,17,31,18,21,311,27,20,27,049,28*
7F
$GPGSV,4,3,15,23,13,255,34,2,25,14,232,34,29,61,302,33*
72
$GPGSV,4,4,15,30,01,065,16,4249,35,51,48,226,33*
45
$GPGLL,2712.38788,N,08227.11W,194214.00,A,A*
75
$GPRMC,194215.00,A,2712.38789,N,08227.11088,W,0.038,,130722,,,A*
62
$GPVTG,,T,,M,0.038,N,0.070,K
$GPGGA,194215.00,2712.38789,N,08227.11088,W,1,11,0.84,5.2,M,-26.9,M,,*
6B
$GPGSA,A,3,29,13,15,05,02,113,12,,1.53,0.84,1.28*06

$GPGSV,4,1,15,02,38,092,53,017,30,11,28,090,35,12,07,195,24*75

$GPGSV,4,,13,60,102,39,15,58,187,31,18,21,311,27,20,27,
$GPGSV,4,3,15,23,13,255,34,24,02,177,,25,14,232,34,29,61,302,33*
72
$GPGSV,4,4,15,30,01,065,16,4,249,35,51,48,226,34*
42
$GPGLL,2712.38789,N,08227.11,194215.00,A,A*
75
$GPRMC,194216.00,A,2712.38791,N,08227.11089,W,0.033,,130722,,,A*
62
$GPVTG,,T,,M,0.033,N,0.061,K4
$GPGGA,194216.00,2712.38791,N,08227.11089,W,1,11,0.84,5.2,M,-26.9,M,,*
60
$GPGSA,A,3,29,13,15,05,02,1125,23,12,,1.53,0.84,1.28*
06
$GPGSV,4,1,15,02,38,092,30,07,30,11,28,090,35,12,07,195,24*
75
$GPGSV,4,2,15,13,60,102,39,1,18,21,311,27,20,27,049,29*
7E
$GPGSV,4,3,15,23,13,255,34,27,,25,14,232,34,29,61,302,33*
72
$GPGSV,4,4,15,30,01,065,16,41,48,226,34*42

$GPGLL,2712.38791,N,08227.11089,W,194216.00,A,A*7E

$GPRMC,194217.00,A,2712.38791,N,08227.11089,W,0.044,,130722,,,A*
63
$GPVTG,,T,,M,0.044,N,0.082,K
$GPGGA,194217.00,2712.38791,N,08227.11089,W,1,11,0.84,5.1,M,-26.9,M,,*
62
$GPGSA,A,3,29,13,15,05,02,1118,25,23,12,,1.53,0.84,1.28*
06
$GPGSV,4,1,15,02,38,092,30,053,017,30,11,28,090,35,12,07,195,23*
72
$GPGSV,4,2,15,13,60,102,39,1,30,18,21,311,27,20,27,049,29*
7F
$GPGSV,4,3,15,23,13,255,34,27,,25,14,232,34,29,61,302,34*
75
$GPGSV,4,4,15,30,01,065,16,4,35,51,48,226,33*45

$GPGLL,2712.38791,N,08227.11089,W,194217.00,A,A*7F

$GPRMC,194218.00,A,2712.38792,N,08227.11090,W,0.035,,130722,,,A*
61
$GPVTG,,T,,M,0.035,N,0.065,KGPGGA,194218.00,2712.38792,N,08227.11090,W,1,11,0.84,5.1,M,-26.9,M,,*
66
$GPGSA,A,3,29,13,15,05,02,118,25,23,12,,1.53,0.84,1.28*
06
$GPGSV,4,1,15,02,38,092,30,0,30,11,28,090,35,12,07,195,24*
75
$GPGSV,4,2,15,13,60,102,39,1,187,31,18,21,311,28,20,27,049,29*
71
$GPGSV,4,3,15,23,13,255,34,2177,,25,14,232,34,29,61,302,33*72

$GPGSV,4,4,15,30,01,065,,27,249,35,51,48,226,33*45

$GPGLL,2712.38792,N,01090,W,194218.00,A,A*7B

$GPRMC,194219.00,A,2712.38794,N,08227.11091,W,0.050,,130722,,,A*
64
$GPVTG,,T,,M,0.050,N,0.093,K
$GPGGA,194219.00,2712.38794,N,08227.11091,W,1,11,0.84,5.1,M,-26.9,M,,*
60
$GPGSA,A,3,29,13,15,05,02,11,18,25,23,12,,1.53,0.84,1.28*06

$GPGSV,4,1,15,02,38,092,30,05,53,017,30,11,28,090,35,12,23*
72
$GPGSV,4,2,15,13,60,102,39,15,58187,31,18,21,311,28,20,27,049,29*
71
$GPGSV,4,3,15,23,13,255,34,2,177,,25,14,232,34,29,61,302,34*
75
$GPGSV,4,4,15,30,01,065,16,45,51,48,226,33*
45
$GPGLL,2712.38794,N,08227.11,194219.00,A,A*
7D
$GPRMC,194220.00,A,2712.38795,N,08227.11092,W,0.017,,130722,,,A*
6F
$GPVTG,,T,,M,0.017,N,0.031,K
$GPGGA,194220.00,2712.38795,N,08227.11092,W,1,11,0.84,5.1,M,-26.9,M,,*
68
$GPGSA,A,3,29,13,15,05,02,11,25,23,12,,1.53,0.84,1.28*06

$GPGSV,4,1,15,02,38,092,30,05,53,017,30,11,28,090,35,12,07,195,23*$GPGS
V,4,2,15,13,60,102,39,15,58,187,21,311,28,20,27,049,29*
71
$GPGSV,4,3,15,23,13,255,34,276,,25,14,232,34,29,61,302,33*
73
$GPGSV,4,4,15,30,01,065,13,4249,35,51,48,226,33*
40
$GPGLL,2712.38795,N,08227.11194220.00,A,A*
75
$GPRMC,194221.00,A,2712.38797,N,08227.11092,W,0.033,,130722,,,A*
6A
$GPVTG,,T,,M,0.033,N,0.060,K$GPGGA,194221.00,2712.38797,N,08227.11092,W,1,11,0.84,5.0,M,-26.9,M,,*
6A
$GPGSA,A,3,29,13,15,05,02,1125,23,12,,1.53,0.84,1.28*
06
$GPGSV,4,1,15,02,38,092,29,0,017,30,11,28,090,35,12,07,195,22*
7B
$GPGSV,4,2,15,13,60,102,39,130,18,21,311,28,20,27,049,29*
70
$GPGSV,4,3,15,23,13,255,34,2176,,25,14,232,34,29,61,302,33*
73
$GPGSV,4,4,15,30,01,065,18,49,35,51,48,226,33*
4B
$GPGLL,2712.38797,N,08227.11194221.00,A,A*76

$GPRMC,194222.00,A,2712.38797,N,08227.11093,W,0.039,,130722,,,A*
62
$GPVTG,,T,,M,0.039,N,0.072,K
$GPGGA,194222.00,2712.38797,N,08227.11093,W,1,11,0.84,4.9,M,-26.9,M,,*
60
$GPGSA,A,3,29,13,15,05,02,11,20,18,212,,1.53,0.84,1.28*
06
$GPGSV,4,1,15,02,38,092,29,03,017,30,11,28,090,35,12,07,195,23*
7A
$GPGSV,4,2,15,13,60,102,39,1,187,31,18,21,311,28,20,27,049,29*
71
$GPGSV,4,3,15,23,13,255,34,2176,,25,14,232,34,29,61,302,33*
73
$GPGSV,4,4,15,30,01,065,20,449,35,51,48,226,33*
40
$GPGLL,2712.38797,N,08227.1194222.00,A,A*
74
$GPRMC,194223.00,A,2712.38800,N,08227.11093,W,0.003,,130722,,,A*
6B
$GPVTG,,T,,M,0.003,N,0.005,K
$GPGGA,194223.00,2712.38800,N,08227.11093,W,1,11,0.84,4.9,M,-26.9,M,,*
60
$GPGSA,A,3,29,13,15,05,02,11,18,25,23,12,,1.53,0.84,1.28*
06
$GPGSV,4,1,15,02,38,092,29,07,30,11,28,090,34,12,07,195,23*
7B
$GPGSV,4,2,15,13,60,102,39,131,18,21,311,28,20,27,049,29*71

$GPGSV,4,3,15,23,13,255,34,24,02,176,,25,14,232,34,29,61,302,33*73

$GPG,4,4,15,30,01,065,20,48,27,249,35,51,48,226,33GLL,2712.38800,N,08227.11093,W,194223.00,A,A*
74
$GPRMC,194224.00,A,2712.38801,N,08227.11094,W,0.029,,130722,,,A*
62
$GPVTG,,T,,M,0.029,N,0.053,KE
$GPGGA,194224.00,2712.38801,N,08227.11094,W,1,11,0.84,4.9,M,-26.9,M,,*
61
$GPGSA,A,3,29,13,15,05,02,1118,25,23,12,,1.53,0.84,1.28*
06
$GPGSV,4,1,15,02,38,092,29,0017,30,11,28,090,34,12,07,195,22*
7A
$GPGSV,4,2,15,13,60,102,38,17,30,18,21,311,28,20,27,049,28*
70
$GPGSV,4,3,15,23,13,255,33,276,,25,14,232,33,29,61,302,32*
72
$GPGSV,4,4,15,30,01,065,20,4249,34,51,48,226,33*
41
$GPGLL,2712.38801,N,08227.11W,194224.00,A,A*7
5
$GPRMC,194225.00,A,2712.38800,N,08227.11094,W,0.016,,130722,,,A*
6E
$GPVTG,,T,,M,0.016,N,0.030,K7
$GPGGA,194225.00,2712.38800,N,08227.11094,W,1,11,0.84,4.8,M,-26.9,M,,*
60
$GPGSA,A,3,29,13,15,05,02,11,20,23,12,,1.53,0.84,1.28*06

$GPGSV,4,1,15,02,38,092,30,05,7,30,11,28,090,34,12,07,195,21*71

$GPGSV,4,2,15,60,102,38,15,58,187,30,18,21,311,28,20,27,049,29*71,4,3,15,23,13,255,3
3,24,02,176,,25,14,232,33,29,61,302,2*72

$GPGSV,4,4,15,30,01,065,20,48,27,249,34,51,48,,33*41

$GPGLL,2712.38800,N,08227.11094,W,194225.00,A,A
$GPRMC,194226.00,A,2712.38803,N,08227.11095,W,0.023,,130722,,,A*
69
$GPVTG,,T,,M,0.023,N,0.042,K194226.00,2712.38803,N,08227.11095,W,1,11,0.84,4.8,M,-26.9,M,,*
61
$GPGSA,A,3,29,13,15,05,02,1125,23,12,,1.53,0.84,1.28*
06
$GPGSV,4,1,15,02,38,092,30,0,017,31,11,28,090,35,12,07,195,22*
72
$GPGSV,4,2,15,13,60,102,39,17,31,18,21,311,28,20,27,049,29*
71
$GPGSV,4,3,15,23,13,255,34,2,,25,14,232,34,29,61,302,32*
72
$GPGSV,4,4,15,30,01,065,21,45,51,48,226,33*41

$GPGLL,2712.38803,N,08227.11095,W,194*74

$GPRMC,194227.00,A,2712.38804,N,08227.11094,W,0.059,,130722,,,A*
63
$GPVTG,,T,,M,0.059,N,0.110,KPGGA,194227.00,2712.38804,N,08227.11094,W,1,11,0.84,4.8,M,-26.9,M,,*
66
$GPGSA,A,3,29,13,15,05,02,1118,25,23,12,,1.53,0.84,1.28*
06
$GPGSV,4,1,15,02,38,092,30,031,11,28,090,35,12,07,195,21*
71
$GPGSV,4,2,15,13,60,102,39,1187,31,18,21,311,28,20,27,049,29*
71
$GPGSV,4,3,15,23,13,255,34,26,,25,14,232,34,29,61,302,32*
72
$GPGSV,4,4,15,30,01,065,20,4,249,35,51,48,226,33*
40
$GPGLL,2712.38804,N,08227.1127.00,A,A*
73
$GPRMC,194228.00,A,2712.38807,N,08227.11097,W,0.020,,130722,,,A*
62
$GPVTG,,T,,M,0.020,N,0.036,K
$GPGGA,194228.00,2712.38807,N,08227.11097,W,1,11,0.84,4.8,M,-26.9,M,,*
69
$GPGSA,A,3,29,13,15,05,02,11,12,,1.53,0.84,1.28*
06
$GPGSV,4,1,15,02,38,092,31,0,017,31,11,28,090,35,12,07,195,21*
70
$GPGSV,4,2,15,13,60,102,39,17,31,18,21,311,29,20,27,049,29*
70
$GPGSV,4,3,15,23,13,255,34,26,,25,14,232,34,29,61,302,32*72

$GPGSV,4,4,0,01,065,20,48,27,249,35,51,48,226,33*40

$GPGLL,07,N,08227.11097,W,194228.00,A,A*7C

$GPRMC,194229.00,A,2712.38809,N,08227.11099,W,0.014,,130722,,,A*
64
$GPVTG,,T,,M,0.014,N,0.026,K$GPGGA,194229.00,2712.38809,N,08227.11099,W,1,11,0.84,4.8,M,-26.9,M,,*
68
$GPGSA,A,3,29,13,15,05,02,1184,1.28*0
6
$GPGSV,4,1,15,02,38,092,31,0511,28,090,35,12,07,195,21*
70
$GPGSV,4,2,15,13,60,102,39,1,31,18,21,311,29,20,27,049,29*
70
$GPGSV,4,3,15,23,13,255,34,202,176,,25,14,232,34,29,61,302,32*
72
$GPGSV,4,4,15,30,01,065,21,4249,35,51,48,226,33*
41
$GPGLL,2712.38809,N,08227.11194229.00,A,A*
7D
$GPRMC,194230.00,A,2712.38811,N,08227.11099,W,0.033,,130722,,,A*
60
$GPVTG,,T,,M,0.033,N,0.061,KGPGGA,194230.00,2712.38811,N,08227.11099,W,1,11,0.84,4.8,M,-26.9,M,,*
69
$GPGSA,A,3,29,13,15,05,02,11,18,25,23,12,,1.53,0.84,1.28*06

$GPGSV,4,1,15,0,38,092,31,05,53,017,31,11,28,090,35,12,07,195,2SV,4,2,15,13,60,102,39,15,58,187,31,18,21,311,29,20,27,049,29*
70
$GPGSV,4,3,15,23,13,255,33,2,,25,14,232,34,29,61,302,32*
75
$GPGSV,4,4,15,30,01,065,21,4249,35,51,48,226,33*
41
$GPGLL,2712.38811,N,08227.11W,194230.00,A,A*
7C
$GPRMC,194231.00,A,2712.38811,N,08227.11100,W,0.033,,130722,,,A*
60
$GPVTG,,T,,M,0.033,N,0.061,K
$GPGGA,194231.00,2712.38811,N,08227.11100,W,1,11,0.84,4.8,M,-26.9,M,,*
69
$GPGSA,A,3,29,13,15,05,02,11,25,23,12,,1.53,0.84,1.28*
06
$GPGSV,4,1,15,02,38,092,31,0017,31,11,28,090,35,12,07,195,21*
70
$GPGSV,4,2,15,13,60,102,39,1,31,18,21,311,29,20,27,049,29*
70
$GPGSV,4,3,15,23,13,255,33,26,,25,14,232,34,29,61,302,33*
74
$GPGSV,4,4,15,30,01,065,21,435,51,48,226,33*
41
$GPGLL,2712.38811,N,08227.11100,,194231.00,A,A*7
C
$GPRMC,194232.00,A,2712.38814,N,08227.11101,W,0.040,,130722,,,A*
63
$GPVTG,,T,,M,0.040,N,0.074,K
$GPGGA,194232.00,2712.38814,N,08227.11101,W,1,11,0.84,4.7,M,-26.9,M,,*
61
$GPGSA,A,3,29,13,15,05,02,11,18,25,23,12,,1.53,0.84,1.28*
06
$GPGSV,4,1,15,02,38,092,31,07,31,11,28,090,34,12,07,195,21*
71
$GPGSV,4,2,15,13,60,102,38,187,31,18,21,311,29,20,27,049,29*
71
$GPGSV,4,3,15,23,13,255,33,276,,25,14,232,33,29,61,302,33*
73
$GPGSV,4,4,15,30,01,065,21,435,51,48,226,33*41

$GPGLL,2712.38814,N,08227.111012.00,A,A*7B

$GPRMC,194233.00,A,2712.38814,N,08227.11101,W,0.028,,130722,,,A*
6C
$GPVTG,,T,,M,0.028,N,0.053,KPGGA,194233.00,2712.38814,N,08227.11101,W,1,11,0.84,4.7,M,-26.9,M,,*
60
$GPGSA,A,3,29,13,15,05,02,118,25,23,12,,1.53,0.84,1.28*
06
$GPGSV,4,1,15,02,38,092,31,07,32,11,28,090,35,12,07,195,21*
73
$GPGSV,4,2,15,13,60,102,38,131,18,21,311,29,20,27,049,29*
71
$GPGSV,4,3,15,23,13,255,33,26,,25,14,232,34,29,61,302,33*74

$GPGSV,4,4,15,30,01,065,20,48,27,249,35,51,48,226,34*47

$GPGLL,2712.38814,N,0227.11101,W,194233.00,A,A*7A

$GPRMC,194234.00,A,2712.38811,N,08227.11100,W,0.019,,130722,,,A*
6D
$GPVTG,,T,,M,0.019,N,0.036,K
$GPGGA,194234.00,2712.38811,N,08227.11100,W,1,11,0.84,4.7,M,-26.9,M,,*
63
$GPGSA,A,3,29,13,15,05,02,1118,25,23,12,,1.53,0.84,1.28*
06
$GPGSV,4,1,15,02,38,092,30,011,28,090,35,12,07,195,20*
73
$GPGSV,4,2,15,13,60,102,38,187,31,18,21,311,30,20,27,049,29*
79
$GPGSV,4,3,15,23,13,255,33,2,,25,14,232,33,29,61,302,33*
73
$GPGSV,4,4,15,30,01,065,19,47,249,35,51,48,226,34*4D

$GPGLL,2712.38811,N,082.11100,W,194234.00,A,A*79

$GPRMC,194235.00,A,2712.38812,N,08227.11101,W,0.012,,130722,,,A*
65
$GPVTG,,T,,M,0.012,N,0.022,K20
$GPGGA,194235.00,2712.38812,N,08227.11101,W,1,11,0.84,4.7,M,-26.9,M,,*
60
$GPGSA,A,3,29,13,15,05,02,1125,23,12,,1.53,0.84,1.28*06

$GPGSV,4,1,8,092,31,05,53,017,31,11,28,090,35,12,07,195,20*7PGS
V,4,2,15,13,60,102,39,15,58,187,31,18,21,311,30,20,27,049,29*
78
$GPGSV,4,3,15,23,13,255,33,2176,,25,14,232,34,29,61,302,33*
74
$GPGSV,4,4,15,30,01,065,19,4,249,35,51,48,226,33*
4A
$GPGLL,2712.38812,N,08227.1194235.00,A,A*
7A
$GPRMC,194236.00,A,2712.38815,N,08227.11103,W,0.046,,130722,,,A*
62
$GPVTG,,T,,M,0.046,N,0.086,K$GPGGA,194236.00,2712.38815,N,08227.11103,W,1,11,0.84,4.7,M,-26.9,M,,*
66
$GPGSA,A,3,29,13,15,05,02,1125,23,12,,1.53,0.84,1.28*
06
$GPGSV,4,1,15,02,38,092,31,0,017,31,11,28,090,34,12,07,195,21*
71
$GPGSV,4,2,15,13,60,102,39,1,187,31,18,21,311,30,20,27,049,29*
78
$GPGSV,4,3,15,23,13,255,33,25,14,232,34,29,61,302,33*
74
$GPGSV,4,4,15,30,01,065,18,45,51,48,226,33*
4B
$GPGLL,2712.38815,N,08227.11,194236.00,A,A*7C

$GPRMC,194237.00,A,2712.38815,N,08227.11104,W,0.045,,130722,,,A*
67
$GPVTG,,T,,M,0.045,N,0.084,K
$GPGGA,194237.00,2712.38815,N,08227.11104,W,1,11,0.84,4.8,M,-26.9,M,,*
6F
$GPGSA,A,3,29,13,15,05,02,118,25,23,12,,1.53,0.84,1.28*
06
$GPGSV,4,1,15,02,38,092,31,01,28,090,34,12,07,195,21*
72
$GPGSV,4,2,15,13,60,102,38,187,31,18,21,311,30,20,27,049,29*
79
$GPGSV,4,3,15,23,13,255,33,26,,25,14,232,34,29,61,302,33*
74
$GPGSV,4,4,15,30,01,065,18,449,35,51,48,226,34*
4C
$GPGLL,2712.38815,N,08227.11,W,194237.00,A,A*
7A
$GPRMC,194238.00,A,2712.38813,N,08227.11105,W,0.016,,130722,,,A*
69
$GPVTG,,T,,M,0.016,N,0.030,K
$GPGGA,194238.00,2712.38813,N,08227.11105,W,1,11,0.94,4.8,M,-26.9,M,,*
66
$GPGSA,A,3,29,13,15,05,02,11,23,12,,1.68,0.94,1.39*
0F
$GPGSV,4,1,15,02,38,092,31,07,32,11,28,090,34,12,07,195,21*
72
$GPGSV,4,2,15,13,60,102,38,1187,31,18,21,311,30,20,27,049,29*79

$GPGSV,4,3,1,13,255,33,24,02,176,,25,14,232,34,29,61,302,33*74

$GPGS,30,01,065,18,48,27,249,35,51,48,226,34*4C

$G12.38813,N,08227.11105,W,194238.00,A,A*72

$GPRMC,194239.00,A,2712.38811,N,08227.11106,W,0.025,,130722,,,A*
69
$GPVTG,,T,,M,0.025,N,0.047,KGPGGA,194239.00,2712.38811,N,08227.11106,W,1,11,0.94,4.8,M,-26.9,M,,*
66
$GPGSA,A,3,29,13,15,05,02,1118,25,23,12,,1.68,0.94,1.39*
0F
$GPGSV,4,1,15,02,38,092,31,03,017,32,11,28,090,34,12,07,195,21*
72
$GPGSV,4,2,15,13,60,102,38,17,31,18,21,311,30,20,27,049,29*
79
$GPGSV,4,3,15,23,13,255,33,2,176,,25,14,232,34,29,61,302,33*
74
$GPGSV,4,4,15,30,01,065,18,449,35,51,48,226,34*
4C
$GPGLL,2712.38811,N,08227.1194239.00,A,A*72

$GPRMC,194240.00,A,2712.38809,N,08227.11107,W,0.037,,130722,,,A*
6C
$GPVTG,,T,,M,0.037,N,0.069,K
$GPGGA,194240.00,2712.38809,N,08227.11107,W,1,11,0.94.8,M,-26.9,M,,*6
0
$GPGSA,A,3,29,13,15,05,02,11,0,18,25,23,12,,1.68,0.94,1.39*
0F
$GPGSV,4,1,15,02,38,092,31,07,32,11,28,090,34,12,07,195,20*
73
$GPGSV,4,2,15,13,60,102,38,18,187,31,18,21,311,30,20,27,049,29*
79
$GPGSV,4,3,15,23,13,255,33,22,176,,25,14,232,34,29,61,302,33*
74
$GPGSV,4,4,15,30,01,065,18,4249,35,51,48,226,34*
4C
$GPGLL,2712.38809,N,08227.1194240.00,A,A*74

$GPRMC,194241.00,A,2712.38808,N,08227.11106,W,0.032,,130722,,,A*
68
$GPVTG,,T,,M,0.032,N,0.059,K$GPGGA,194241.00,2712.38808,N,08227.11106,W,1,11,0.94,4.8,M,-26.9,M,,*
61
$GPGSA,A,3,29,13,15,05,02,11,12,,1.68,0.94,1.39*
0F
$GPGSV,4,1,15,02,38,092,31,05,53,32,11,28,090,34,12,07,195,19*
79
$GPGSV,4,2,15,13,60,102,38,158,187,30,18,21,311,30,20,27,049,29*
78
$GPGSV,4,3,15,23,13,255,33,2,,25,14,232,33,29,61,302,33*
73
$GPGSV,4,4,15,30,01,065,17,451,48,226,34*43

$GPGLL,2712.38808,N,08227.11106,W,19424,A*75

$GPRMC,194242.00,A,2712.38809,N,08227.11108,W,0.014,,130722,,,A*
60
$GPVTG,,T,,M,0.014,N,0.025,K
$GPGGA,194242.00,2712.38809,N,08227.11108,W,1,11,0.94,4.8,M,-26.9,M,,*
6D
$GPGSA,A,3,29,13,15,05,02,11,23,12,,1.68,0.94,1.39*
0F
$GPGSV,4,1,15,02,38,092,31,07,32,11,28,090,34,12,07,195,19*
79
$GPGSV,4,2,15,13,60,102,38,18,21,311,30,20,27,049,29*
79
$GPGSV,4,3,15,23,13,255,32,25,14,232,33,29,61,302,33*72

$GPGSV,4,4,15,30,01,06548,27,249,35,51,48,226,34*43

$GPGLL09,N,08227.11108,W,194242.00,A,A*79
$GPRMC,194243.00,A,2712.38808,N,08227.11110,W,0.067,,130722,,,A*
6D
$GPVTG,,T,,M,0.067,N,0.125,K,194243.00,2712.38808,N,08227.11110,W,1,11,0.94,4.7,M,-26.9,M,,*
6B
$GPGSA,A,3,29,13,15,05,02,1125,23,12,,1.68,0.94,1.39*
0F
$GPGSV,4,1,15,02,38,092,31,032,11,28,090,34,12,07,195,18*78

$GPGSV,2,15,13,60,102,38,15,58,187,30,18,21,311,30,20,27,0478
$GPGSV,4,3,15,23,13,255,32,24,02,176,,25,14,232,33,29,61,302,34*
75
$GPGSV,4,4,15,30,01,065,17,4,249,35,51,48,226,34*
43
$GPGLL,2712.38808,N,08227.114243.00,A,A*
70
$GPRMC,194244.00,A,2712.38804,N,08227.11111,W,0.037,,130722,,,A*
62
$GPVTG,,T,,M,0.037,N,0.068,K
$GPGGA,194244.00,2712.38804,N,08227.11111,W,1,11,0.94,4.8,M,-26.9,M,,*
6E
$GPGSA,A,3,29,13,15,05,02,11,23,12,,1.68,0.94,1.39*
0F
$GPGSV,4,1,15,02,38,092,31,08,32,11,28,090,34,12,07,195,18*
77
$GPGSV,4,2,15,13,60,102,38,187,30,18,21,311,30,20,27,049,29*
78
$GPGSV,4,3,15,23,13,255,32,2176,,25,14,232,33,29,61,302,34*
75
$GPGSV,4,4,15,30,01,065,16,449,35,51,48,226,34*
42
$GPGLL,2712.38804,N,08227.11194244.00,A,A*
7A
$GPRMC,194245.00,A,2712.38803,N,08227.11111,W,0.033,,130722,,,A*
60
$GPVTG,,T,,M,0.033,N,0.061,K$GPGGA,194245.00,2712.38803,N,08227.11111,W,10.94,4.8,M,-26.9,M,,*
68
$GPGSA,A,3,29,13,15,05,02,1125,23,12,,1.68,0.94,1.39*
0F
$GPGSV,4,1,15,02,38,092,32,0,018,32,11,28,090,34,12,07,195,17*
7B
$GPGSV,4,2,15,13,60,102,38,1,30,18,21,311,30,20,27,049,29*
78
$GPGSV,4,3,15,23,13,255,32,276,,25,14,232,33,29,61,302,34*
75
$GPGSV,4,4,15,30,01,065,14,4,249,35,51,48,226,34*
40
$GPGLL,2712.38803,N,08227.1194245.00,A,A*
7C
$GPRMC,194246.00,A,2712.38799,N,08227.11111,W,0.040,,130722,,,A*
6B
$GPVTG,,T,,M,0.040,N,0.075,K$GPGGA,194246.00,2712.38799,N,08227.11111,W,1,11,0.94,4.8,M,-26.9,M,,*
67
$GPGSA,A,3,29,13,15,05,02,115,23,12,,1.68,0.94,1.39*
0F
$GPGSV,4,1,15,02,38,092,31,08,32,11,28,090,35,12,07,195,17*
79
$GPGSV,4,2,15,13,60,102,38,1,30,18,21,311,30,20,27,049,29*
78
$GPGSV,4,3,15,23,13,255,32,2,,25,14,232,33,29,61,302,34*
75
$GPGSV,4,4,15,30,01,065,12,4249,35,51,48,226,34*46

$GPGLL,2712.38799,N,08227.11111,W,194246.00,A,A*73

$GPRMC,194247.00,A,2712.38796,N,08227.11113,W,0.027,,130722,,,A*
66
$GPVTG,,T,,M,0.027,N,0.050,K3
$GPGGA,194247.00,2712.38796,N,08227.11113,W,1,11,0.94,4.8,M,-26.9,M,,*
6B
$GPGSA,A,3,29,13,15,05,02,118,25,23,12,,1.68,0.94,1.39*
0F
$GPGSV,4,1,15,02,38,092,32,018,32,11,28,090,35,12,07,195,18*
75
$GPGSV,4,2,15,13,60,102,38,18,187,30,18,21,311,29,20,27,049,30*
78
$GPGSV,4,3,15,23,13,255,33,26,,25,14,232,33,29,61,302,34*
74
$GPGSV,4,4,15,30,01,065,09,4,35,51,48,226,33*
4B
$GPGLL,2712.38796,N,08227.11194247.00,A,A*7F

$GPRMC,194248.00,A,2712.38795,N,08227.11112,W,0.012,,130722,,,A*
6D
$GPVTG,,T,,M,0.012,N,0.023,KGGA,194248.00,2712.38795,N,08227.11112,W,1,11,0.94,4.8,M,-26.9,M,,*
66
$GPGSA,A,3,29,13,15,05,02,1123,12,,1.68,0.94,1.39*
0F
$GPGSV,4,1,15,02,38,092,32,02,11,28,090,34,12,07,195,18*74

$GPGSV,4,2,15,13,60,102,,15,58,187,30,18,21,311,30,20,27,049,29*78

$GPGS15,23,13,255,32,24,02,176,,25,14,232,33,29,61,302,5
$GPGSV,4,4,15,30,01,065,10,48,27,249,35,51,48,226,34*
44
$GPGLL,2712.38795,N,08227.1194248.00,A,A*72

$GPRMC,194249.00,A,2712.38794,N,08227.11113,W,0.071,,130722,,,A*
69
$GPVTG,,T,,M,0.071,N,0.131,K,194249.00,2712.38794,N,08227.11113,W,1,11,0.94,4.9,M,-26.9,M,,*
66
$GPGSA,A,3,29,13,15,05,02,11,25,23,12,,1.68,0.94,1.39*
0F
$GPGSV,4,1,15,02,38,092,31,02,11,28,090,34,12,07,195,19*
76
$GPGSV,4,2,15,13,60,102,38,1,30,18,21,311,30,20,27,049,29*
78
$GPGSV,4,3,15,23,13,255,33,22,176,,25,14,232,33,29,61,302,34*
74
$GPGSV,4,4,15,30,01,065,10,49,35,51,48,226,34*44

$GPGLL,2712.38794,N,08227.11113,W,194249.00,A,A*73

$GPRMC,194250.00,A,2712.38790,N,08227.11112,W,0.014,,130722,,,A*
67
$GPVTG,,T,,M,0.014,N,0.026,KGPGGA,194250.00,2712.38790,N,08227.11112,W,1,11,0.94,4.9,M,-26.9,M,,*6B

$GPGSA,A,3,29,13,15,05,02,11,20,18,25,2,,1.68,0.94,1.39*0F

$GPGSV,4,1,15,02,38,092,31,05,53,018,32,128,091,34,12,07,195,19*
77
$GPGSV,4,2,15,13,60,102,38,1,29,18,21,311,30,20,27,049,29*70

$GPGSV,4,3,15,2355,32,24,02,176,,25,14,232,33,29,61,4
$GPGSV,4,4,15,30,01,065,10,48,27,249,35,51,48,226,34*
44
$GPGLL,2712.38790,N,08227.114250.00,A,A*
7E
$GPRMC,194251.00,A,2712.38790,N,08227.11113,W,0.065,,130722,,,A*
61
$GPVTG,,T,,M,0.065,N,0.120,K
$GPGGA,194251.00,2712.38790,N,08227.11113,W,1,11,0.94,4.8,M,-26.9,M,,*
6A
$GPGSA,A,3,29,13,15,05,02,1125,23,12,,1.68,0.94,1.39*
0F
$GPGSV,4,1,15,02,38,092,31,02,11,28,091,34,12,07,195,17*
79
$GPGSV,4,2,15,13,60,102,38,17,29,18,21,311,30,20,27,049,29*
70
$GPGSV,4,3,15,23,13,255,33,26,,25,14,232,33,29,61,302,35*
75
$GPGSV,4,4,15,30,01,065,,48,,35,51,48,226,33*
42
$GPGLL,2712.38790,N,08227.11,194251.00,A,A*7E

$GPRMC,194252.00,A,2712.38789,N,08227.11113,W,0.016,,130722,,,A*
6E
$GPVTG,,T,,M,0.016,N,0.030,KGPGGA,194252.00,2712.38789,N,08227.11113,W,1,11,0.94,4.8,M,-26.9,M,,*
61
$GPGSA,A,3,29,13,15,05,02,11,18,25,23,12,,1.68,0.94,1.39*
0F
$GPGSV,4,1,15,02,38,092,31,08,31,11,28,091,35,12,07,195,16*
7A
$GPGSV,4,2,15,13,60,101,38,1,187,29,18,21,311,29,20,27,049,29*
7B
$GPGSV,4,3,15,23,13,255,33,26,,25,14,232,33,29,61,302,34*
74
$GPGSV,4,4,15,30,01,065,,48,249,35,51,48,226,33*
42
$GPGLL,2712.38789,N,08227.11,W,194252.00,A,A*
75
$GPRMC,194253.00,A,2712.38788,N,08227.11113,W,0.021,,130722,,,A*
6A
$GPVTG,,T,,M,0.021,N,0.039,K
$GPGGA,194253.00,2712.38788,N,08227.11113,W,1,11,0.94,4.8,M,-26.9,M,,*
61
$GPGSA,A,3,29,13,15,05,02,11,25,23,12,,1.68,0.94,1.39*
0F
$GPGSV,4,1,15,02,38,092,32,031,11,28,091,35,12,07,195,16*
79
$GPGSV,4,2,15,13,60,101,38,17,29,18,21,311,29,20,27,049,29*7B

$GPGSV,4,3,15,23,13,255,33,24,02,176,,25,14,232,33,29,61,302,35*7SV,4,4,15,
30,01,065,,48,27,249,35,51,48,226,345
$GPGLL,2712.38788,N,08227.11113,W,194253.00,A,A*
75
$GPRMC,194254.00,A,2712.38785,N,08227.11113,W,0.038,,130722,,,A*
68
$GPVTG,,T,,M,0.038,N,0.071,KGGA,194254.00,2712.38785,N,08227.11113,W,1,11,0.94,4.8,M,-26.9,M,,*
6B
$GPGSA,A,3,29,13,15,05,02,11,1.68,0.94,1.39*
0F
$GPGSV,4,1,15,02,38,092,32,08,31,11,28,091,35,12,07,195,16*
79
$GPGSV,4,2,15,13,60,101,38,19,187,29,18,21,311,29,20,27,049,29*
7A
$GPGSV,4,3,15,23,13,255,33,225,14,232,33,29,61,302,35*
75
$GPGSV,4,4,15,30,01,065,,48,,35,51,48,226,34*
45
$GPGLL,2712.38785,N,08227.11W,194254.00,A,A*
7F
$GPRMC,194255.00,A,2712.38781,N,08227.11114,W,0.051,,130722,,,A*
65
$GPVTG,,T,,M,0.051,N,0.095,K
$GPGGA,194255.00,2712.38781,N,08227.11114,W,1,11,0.94,4.9,M,-26.9,M,,*
68
$GPGSA,A,3,29,13,15,05,02,1125,23,12,,1.68,0.94,1.39*0F

$GPGSV,4,1,15,02,38,092,3,53,018,32,11,28,091,35,12,07,195,15*79

$GPGSV,415,13,60,101,38,15,59,187,29,18,21,311,29,20,27,0430*72

$GPGSV,4,3,15,23,13,255,33,24,02,176,,25,14,23229,61,302,35*74

$GPGSV,4,4,15,30,01,065,,48,27,48,226,34*45

$GPGLL,2712.38781,N,08227.11114,W,1900,A,A*7D

$GPRMC,194256.00,A,2712.38776,N,08227.11114,W,0.015,,130722,,,A*
6E
$GPVTG,,T,,M,0.015,N,0.027,KPGGA,194256.00,2712.38776,N,08227.11114,W,1,10,0.94,4.9,M,-26.9,M,,*
62
$GPGSA,A,3,29,13,15,05,02,11,18,25,23,,,1.68,0.94,1.39*
0C
$GPGSV,4,1,15,02,38,092,32,0,018,32,11,28,091,35,12,07,195,*
7D
$GPGSV,4,2,15,13,60,101,38,17,29,18,21,311,28,20,27,049,30*
73
$GPGSV,4,3,15,23,13,255,33,2,,25,14,232,33,29,61,302,35*
75
$GPGSV,4,4,15,30,01,065,,48,1,48,226,34*45

$GPGLL,2712.38776,N,08227.11114,W,194200,A,A*76

$GPRMC,194257.00,A,2712.38772,N,08227.11115,W,0.040,,130722,,,A*
6A
$GPVTG,,T,,M,0.040,N,0.073,K3
$GPGGA,194257.00,2712.38772,N,08227.11115,W,1,10,0.94,5.0,M,-26.9,M,,*
6E
$GPGSA,A,3,29,13,15,05,02,11,18,25,23,,,1.68,0.94,1.39*
0C
$GPGSV,4,1,15,02,38,092,32,08,32,11,28,091,35,12,07,195,*
7D
$GPGSV,4,2,15,13,60,101,38,187,29,18,21,311,28,20,27,049,30*
73
$GPGSV,4,3,15,23,13,255,33,26,,25,14,232,33,29,61,302,35*
75
$GPGSV,4,4,15,30,01,065,,48,9,35,51,48,226,34*45

$GPGLL,2712.38772,N,08227.11115,W,1,A,A*72

$GPRMC,194258.00,A,2712.38770,N,08227.11115,W,0.047,,130722,,,A*
60
$GPVTG,,T,,M,0.047,N,0.088,K,194258.00,2712.38770,N,08227.11115,W,1,10,0.94,5.1,M,-26.9,M,,*
62
$GPGSA,A,3,29,13,15,05,02,118,25,23,,,1.68,0.94,1.39*
0C
$GPGSV,4,1,15,02,38,092,32,032,11,28,091,34,12,07,195,*
7C
$GPGSV,4,2,15,13,60,101,38,17,29,18,21,311,28,20,27,049,30*73

$GPGS,15,23,13,255,33,24,02,176,,25,14,232,33,29,61,3035*
75
$GPGSV,4,4,15,30,01,065,,48,27,29,35,51,48,226,34*
45
$GPGLL,2712.38770,N,08227.114258.00,A,A*
7F
$GPRMC,194259.00,A,2712.38768,N,08227.11114,W,0.040,,130722,,,A*
6E
$GPVTG,,T,,M,0.040,N,0.074,K
$GPGGA,194259.00,2712.38768,N,08227.11114,W,1,10,0.94,5.1,M,-26.9,M,,*
6B
$GPGSA,A,3,29,13,15,05,02,11,18,25,23,,,1.68,0.94,1.39*
0C
$GPGSV,4,1,15,02,38,092,32,0,018,32,11,28,091,34,12,07,195,*
7C
$GPGSV,4,2,15,13,60,101,38,187,29,18,21,311,28,20,27,049,30*
73
$GPGSV,4,3,15,23,13,255,33,2176,,25,14,232,33,29,61,302,35*
75
$GPGSV,4,4,15,30,01,065,,48,,51,48,226,34*
45
$GPGLL,2712.38768,N,08227.11194259.00,A,A*
76
$GPRMC,194300.00,A,2712.38763,N,08227.11113,W,0.080,,130722,,,A*
63
$GPVTG,,T,,M,0.080,N,0.149,K
$GPGGA,194300.00,2712.38763,N,08227.11113,W1,10,0.94,5.1,M,-26.9,M,,*
6A
$GPGSA,A,3,29,13,15,05,02,1118,25,23,,,1.68,0.94,1.39*
0C
$GPGSV,4,1,15,02,38,092,32,032,11,28,091,34,12,07,195,16*
7B
$GPGSV,4,2,15,13,60,101,38,1,28,18,21,311,28,20,27,049,29*
7A
$GPGSV,4,3,15,23,13,255,33,22,176,,25,14,232,33,29,61,302,35*
75
$GPGSV,4,4,15,30,01,065,,48,5,51,48,226,34*
45
$GPGLL,2712.38763,N,08227.11W,194300.00,A,A*
77
$GPRMC,194301.00,A,2712.38759,N,08227.11113,W,0.024,,130722,,,A*
65
$GPVTG,,T,,M,0.024,N,0.044,K$GPGGA,194301.00,2712.38759,N,08227.11113,W,1,10,0.94,5.1,M,-26.9,M,,*
62
$GPGSA,A,3,29,13,15,05,02,11,20,18,23,,,1.68,0.94,1.39*
0C
$GPGSV,4,1,15,02,38,092,32,032,11,28,091,34,12,07,195,*
7C
$GPGSV,4,2,15,13,60,101,38,17,29,18,21,311,29,20,27,049,29*
7A
$GPGSV,4,3,15,23,13,255,33,2,176,,25,14,232,32,29,61,302,35*
74
$GPGSV,4,4,15,30,01,065,,48,35,51,48,226,34*45

$GPGLL,2712.38759,N,08227.1114301.00,A,A*7F

$GPRMC,194302.00,A,2712.38754,N,08227.11113,W,0.054,,130722,,,A*
6C
$GPVTG,,T,,M,0.054,N,0.101,K$GPGGA,194302.00,2712.38754,N,08227.11113,W,1,10,0.94,5.2,M,-26.9,M,,*
6F
$GPGSA,A,3,29,13,15,05,02,1125,23,,,1.68,0.94,1.39*
0C
$GPGSV,4,1,15,02,38,092,32,0,32,11,28,091,34,12,07,195,16*
7B
$GPGSV,4,2,15,13,60,101,38,1,28,18,21,311,29,20,27,049,29*
7B
$GPGSV,4,3,15,23,13,255,33,2176,,25,14,232,33,29,61,302,35*
75
$GPGSV,4,4,15,30,01,065,,48,51,48,226,33*4
2
$GPGLL,2712.38754,N,08227.11113,W194302.00,A,A*
71
$GPRMC,194303.00,A,2712.38749,N,08227.11112,W,0.006,,130722,,,A*
67
$GPVTG,,T,,M,0.006,N,0.010,K4
$GPGGA,194303.00,2712.38749,N,08227.11112,W,1,10,0.93,5.3,M,-26.9,M,,*
65
$GPGSA,A,3,29,13,15,05,02,11,,1.68,0.93,1.39*
0B
$GPGSV,4,1,15,02,38,092,32,018,32,11,28,091,34,12,07,195,16*7B

$GPGSV,4,2,15,1360,101,38,15,59,187,28,18,21,311,29,20,27,049,29*7BV,4,3,15,23,13,
255,33,24,02,176,,25,14,232,33,29,61,302,35*75

$GPGSV,4,4,15,30,01,065,,48,27,249,3,48,226,33*42

$GPGLL,2712.38749,N,08227.11112,W03.00,A,A*7D

$GPRMC,194304.00,A,2712.38745,N,08227.11111,W,0.043,,130722,,,A*
6E
$GPVTG,,T,,M,0.043,N,0.080,K
$GPGGA,194304.00,2712.38745,N,08227.11111,W,1,10,0.93,5.4,M,-26.9,M,,*
6A
$GPGSA,A,3,29,13,15,05,02,1125,23,,,1.68,0.93,1.39*
0B
$GPGSV,4,1,15,02,38,092,33,0,018,32,11,28,091,34,12,07,195,15*
79
$GPGSV,4,2,15,13,60,101,38,19,187,28,18,21,311,28,20,27,049,28*
7B
$GPGSV,4,3,15,23,13,255,33,225,14,232,33,29,61,302,34*
74
$GPGSV,4,4,15,30,01,065,,48,35,51,48,226,33*42

$GPGLL,2712.38745,N,08227.11111,W,14.00,A,A*75

$GPRMC,194305.00,A,2712.38739,N,08227.11111,W,0.025,,130722,,,A*
64
$GPVTG,,T,,M,0.025,N,0.046,K$GPGGA,194305.00,2712.38739,N,08227.11111,W,1,10,0.93,5.5,M,-26.9,M,,*
61
$GPGSA,A,3,29,13,15,05,02,11,18,25,23,,,1.68,0.93,1.39*
0B
$GPGSV,4,1,15,02,38,092,32,03,018,32,11,28,091,34,12,07,195,15*
78
$GPGSV,4,2,15,13,60,101,38,1187,28,18,21,311,28,20,27,049,28*
7B
$GPGSV,4,3,15,23,13,255,33,2,,25,14,232,32,29,61,302,35*
74
$GPGSV,4,4,15,30,01,065,,48,49,35,51,48,226,34*45

$GPGLL,2712.38739,N,08227.11111,W,194305.00,A,A*7F

$GPRMC,194306.00,A,2712.38733,N,08227.11110,W,0.036,,130722,,,A*
6E
$GPVTG,,T,,M,0.036,N,0.067,KGPGGA,194306.00,2712.38733,N,08227.11110,W,1,11,0.93,5.6,M,-26.9,M,,*
6B
$GPGSA,A,3,29,13,15,05,02,118,25,23,12,,1.68,0.93,1.39*08

$GPGSV,4,1,15,02,38,05,53,018,33,11,28,091,34,12,07,195,14
$GPGSV,4,2,15,13,60,101,38,15,59,187,27,18,21,311,29,20,27,049,29*
74
$GPGSV,4,3,15,23,13,255,33,225,14,232,33,29,61,302,35*
75
$GPGSV,4,4,15,30,01,065,,48,,35,51,48,226,34*4A

$GPGLL,2712.38733,N227.11110,W,194306.00,A,A*77

$GPRMC,194307.00,A,2712.38727,N,08227.11109,W,0.032,,130722,,,A*
66
$GPVTG,,T,,M,0.032,N,0.060,K,194307.00,2712.38727,N,08227.11109,W,1,11,0.93,5.7,M,-26.9,M,,*
66
$GPGSA,A,3,29,13,15,05,02,118,25,23,12,,1.67,0.93,1.39*
07
$GPGSV,4,1,15,02,38,092,32,0,018,32,11,28,091,34,12,07,195,14*
79
$GPGSV,4,2,15,13,60,101,38,187,27,18,21,311,28,20,27,049,29*
75
$GPGSV,4,3,15,23,13,255,33,225,14,232,33,29,61,301,35*
76
$GPGSV,4,4,15,30,01,065,,48,,48,226,34*
4A
$GPGLL,2712.38727,N,08227.11307.00,A,A*
7B
$GPRMC,194308.00,A,2712.38722,N,08227.11108,W,0.040,,130722,,,A*
68
$GPVTG,,T,,M,0.040,N,0.074,KGPGGA,194308.00,2712.38722,N,08227.11108,W,1,10,0.93,5.7,M,-26.9,M,,*
6C
$GPGSA,A,3,29,13,15,05,02,1118,25,23,,,1.67,0.93,1.39*
04
$GPGSV,4,1,15,02,38,092,33,033,11,28,091,34,12,07,195,19*74

$GPGSV,4,2,1,101,38,15,59,187,27,18,21,311,28,20,27,049,29*7GSV,4,3,
15,23,13,255,33,24,02,176,,25,14,23229,61,301,35*
76
$GPGSV,4,4,15,30,02,065,,48,35,51,48,226,34*
49
$GPGLL,2712.38722,N,08227.118.00,A,A*
70
$GPRMC,194309.00,A,2712.38718,N,08227.11108,W,0.017,,130722,,,A*
62
$GPVTG,,T,,M,0.017,N,0.031,K
$GPGGA,194309.00,2712.38718,N,08227.11108,W,1,10,0.93,5.8,M,-26.9,M,,*
6B
$GPGSA,A,3,29,13,15,05,02,11,,1.67,0.93,1.39*
04
$GPGSV,4,1,15,02,38,092,32,0018,32,11,28,091,34,12,07,195,17*
7A
$GPGSV,4,2,15,13,60,101,38,127,18,21,311,28,20,27,049,28*
74
$GPGSV,4,3,15,23,13,255,33,2176,,25,14,232,33,29,61,301,35*
76
$GPGSV,4,4,15,30,02,065,,48,51,48,226,34*
49
$GPGLL,2712.38718,N,08227.11.00,A,A*78

$GPRMC,194310.00,A,2712.38714,N,08227.11108,W,0.032,,130722,,,A*
61
$GPVTG,,T,,M,0.032,N,0.058,K
$GPGGA,194310.00,2712.38714,N,08227.11108,W,1,10,0.93,5.9,M,-26.9,M,,*
6E
$GPGSA,A,3,29,13,15,05,02,1193,1.39*04

$GPGSV,4,1,15,02,38,092,33,05,53,0,091,34,12,07,195,*
7D
$GPGSV,4,2,15,13,60,101,38,1,27,18,21,311,29,20,27,049,28*
75
$GPGSV,4,3,15,23,13,255,33,2,176,,25,14,232,33,29,61,301,35*
76
$GPGSV,4,4,15,30,02,065,,48,44,35,51,48,226,33*
4E
$GPGLL,2712.38714,N,08227.11,194310.00,A,A*
7C
$GPRMC,194311.00,A,2712.38710,N,08227.11108,W,0.010,,130722,,,A*
64
$GPVTG,,T,,M,0.010,N,0.018,KPGGA,194311.00,2712.38710,N,08227.11108,W,1,10,0.93,5.9,M,-26.9,M,,*
6B
$GPGSA,A,3,29,13,15,05,02,11,25,23,,,1.67,0.93,1.39*
04
$GPGSV,4,1,15,02,38,092,33,0,11,28,091,34,12,07,195,*
7D
