$GPRMC,224927.00,A,2712.38107,N,08227.10971,W,0.064,,130722,,,A*
67
$GPVTG,,T,,M,0.064,N,0.119,K,A*2GA,224927.00,2712.38107,N,08227.10971,W,1,09,8,M,-26.9,M,,*61

$GPGSA,A,3,18,24,23,15,10,32,29,27,05,,46,0.86,1.18*
06
$GPGSV,4,1,14,05,06,096,14,10,32313,26,13,00,045,,15,31,043,29*
7C
$GPGSV,4,2,14,18,79,161,30,22,08,235,,23,52,347,26,24,56,092,24*
7E
$GPGSV,4,3,14,27,13,300,23,29,1117,32,28,246,29,46,30,247,*
72
$GPGSV,4,4,14,48,34,244,,51,49,27,*7B

$GPGLL,2712.38107,N,08227.10971,W,2249A,A*79

$GPRMC,224928.00,A,2712.38106,N,08227.10974,W,0.146,,130722,,,A*
6D
$GPVTG,,T,,M,0.146,N,0.270,K,A*2$GPGGA,224
928.00,2712.38106,N,08227.10974,W,1,.86,2.7,M,-26.9,M,,*
65
$GPGSA,A,3,18,24,23,15,10,32,29,,,,,1.46,0.86,1.18*
06
$GPGSV,4,1,14,05,06,096,15,10,3226,13,00,045,,15,31,043,29*7D

$GPGSV,4,2,14,18,7,30,22,08,235,,23,52,347,26,24,56,092,24*7E

$GPGSV,4,3,27,13,300,23,29,11,188,17,32,28,246,28,46,30,,*73

$GPGSV,4,4,14,48,34,244,,51,49,227,*7B
GLL,2712.38
106,N,08227.10974,W,224928.00,A,A*72
$GPRMC,224929.00,A,2712.38116,N,08227.10988,W,0.167,,130722,,,A*
6D
$GPVTG,,T,,M,0.167,N,0.310,K,A*2GPGGA,224929
.00,2712.38116,N,08227.10988,W,1,09,.9,M,-26.9,M,,*
68
$GPGSA,A,3,18,24,23,15,10,32,29,5,,,,1.46,0.86,1.18*
06
$GPGSV,4,1,14,05,06,096,17,10,3213,26,13,00,045,,15,31,043,29*
7F
$GPGSV,4,2,14,18,79,161,30,22,0823,52,347,27,24,56,092,25*
7E
$GPGSV,4,3,14,27,13,300,25,29,11,17,32,28,246,29,46,30,247,*74

$GPGSV,4,4,14,48,34,2449,227,*7B

$GPGLL,2712.38116,N,08227.10988,W,224929.00,
$GPRMC,224930.00,A,2712.38122,N,08227.10993,W,0.177,,130722,,,A*
69
$GPVTG,,T,,M,0.177,N,0.329,K,A*2GPGGA,224930.0
0,2712.38122,N,08227.10993,W,1,09,0.,M,-26.9,M,,*64

$GPGSA,A,3,18,24,23,15,10,32,29,27,,,1.46,0.86,1.18*
06
$GPGSV,4,1,14,05,06,096,19,10,3213,27,13,00,045,,15,31,043,29*
70
$GPGSV,4,2,14,18,79,161,31,22,08,23,52,347,28,24,56,092,27*
72
$GPGSV,4,3,14,27,13,300,26,29,1188,18,32,28,246,29,46,30,247,*
78
$GPGSV,4,4,14,48,34,244,,51,49,2*7B

$GPGLL,2712.38122,N,08227.10993,W,224930.00,A,$GPRMC,224931.00,A,2712.38125,N,08227.10996,W,0.059,,130722,,,A*
67
$GPVTG,,T,,M,0.059,N,0.109,K,A*2GPGGA,224931.00,2712.38125,N,08227.10996,W,1,09,0.86,3.26.9,M,,*67

$GPGSA,A,3,18,24,23,15,10,32,29,27,05,,,,1.1.18*06

$GPGSV,4,1,14,05,06,096,20,10,32,313,27,13,00,,31,043,29*7A

$GPGSV,4,2,14,18,79,161,31,22,08,235,,347,29,24,56,092,28*
7C
$GPGSV,4,3,14,27,13,300,27,29,119,32,28,246,30,46,30,247,*
70
$GPGSV,4,4,14,48,34,244,,51,49,27,*7B

$GPGLL,2712.38125,N,08227.10996,W,224931.00,A,A*
$GPRMC,224932.00,A,2712.38123,N,08227.11001,W,0.190,,130722,,,A*
60
$GPVTG,,T,,M,0.190,N,0.352,K,A*2GA,224932.00,2712.38
123,N,08227.11001,W,1,09,0.86,3.2,M,9,M,,*67

$GPGSA,A,3,18,24,23,15,10,32,29,27,05,,,,1.46,6,1.18*06

$GPGSV,4,1,14,05,06,096,21,10,32,313,27,13,00045,,15,31,043,29*7B

$GPGSV,4,2,14,18,79,161,31,22,08,235,347,30,24,56,092,29*75

$GPGSV,4,3,14,27,13,300,27,29,110,32,28,246,30,46,30,247,*7A

$GPGSV,4,4,14,48,34,244,,5,227,*7B

$GPGLL,2712.38123,N,08227.11001,W,224932.00,A4
$GPRMC,224933.00,A,2712.38123,N,08227.11007,W,0.042,,130722,,,A*
69
$GPVTG,,T,,M,0.042,N,0.078,K,A*2PGGA,224933.00,2712.38
123,N,08227.11007,W,1,09,0.86,3.5,M,.9,M,,*67

$GPGSA,A,3,18,24,23,15,10,32,29,27,05,,.86,1.18*06

$GPGSV,4,1,14,05,06,096,21,,32,313,27,13,00,045,,15,31,043,29*7GPG
SV,4,2,14,18,79,161,32,22,08,235,,2347,30,24,56,092,29*
76
$GPGSV,4,3,14,27,13,300,27,29,118,20,32,28,246,30,46,30,247,*
7A
$GPGSV,4,4,14,48,34,244,,51,49,227,*7B

$GPGLL,2712.38123,N,08227.11007,W,223.00,A,A*73

$GPRMC,224934.00,A,2712.38126,N,08227.11011,W,0.131,,130722,,,A*
69
$GPVTG,,T,,M,0.131,N,0.243,K,A*2

$GPGGA,224934.00,2712.38126,N,08227.110,W,1,09,0.86,3.6,M,-26.9,M,,*
61
$GPGSA,A,3,18,24,23,15,10,32,29,27,05,,,,1.46,0.86,1.18*
06
$GPGSV,4,1,14,05,06,096,21,10,3227,13,00,045,,15,31,043,29*
7B
$GPGSV,4,2,14,18,79,161,31,22,08,52,347,30,24,56,092,29*
75
$GPGSV,4,3,14,27,13,300,27,29,1188,20,32,28,246,30,46,30,247,*
7A
$GPGSV,4,4,14,48,34,244,,51,49,2B
$GPGLL,2712.38126,N,08227.11011,W,224934.00,A,A*
76
$GPRMC,224935.00,A,2712.38130,N,08227.11012,W,0.061,,130722,,,A*
68
$GPVTG,,T,,M,0.061,N,0.112,K,A*2

$GPGGA,224935.00,2712.38130,N,08227.11012,W86,3.6,M,-26.9,M,,*64

$GPGSA,A,3,18,24,23,15,10,32,29,2,,,,1.46,0.86,1.18*06

$GPGSV,4,1,14,05,2,313,27,13,00,045,,15,31,043,29*7A

$GPG14,18,79,161,31,22,08,235,,23,52,347,30,2092,29*7
5
$GPGSV,4,3,14,27,13,300,28,29,11,0,32,28,246,30,46,30,247,*
75
$GPGSV,4,4,14,48,34,244,,51,49,27B
$GPGLL,2712.38130,N,08227.11012,W,224935.00,A,A*
73
$GPRMC,224936.00,A,2712.38130,N,08227.11011,W,0.121,,130722,,,A*
6D
$GPVTG,,T,,M,0.121,N,0.225,K,A*2GGA,224936
.00,2712.38130,N,08227.11011,W,1,09,7,M,-26.9,M,,*
65
$GPGSA,A,3,18,24,23,15,10,32,29,27,05,,,,1.46,0.86,1.18*
06
$GPGSV,4,1,14,05,06,096,20,10,3227,13,00,045,,15,31,043,29*7A

$GPGSV,4,2,14,18,7,31,22,08,235,,23,52,347,30,24,56,092,30*7D

$GPGSV,4,3,,300,28,29,11,188,20,32,28,246,30,46,30,247,*GPGSV,4,4,
14,48,34,244,,51,49,227,*7B

$GPGLL,38130,N,08227.11011,W,224936.00,A,A*73

$GPRMC,224937.00,A,2712.38129,N,08227.11006,W,0.032,,130722,,,A*
61
$GPVTG,,T,,M,0.032,N,0.060,K,A*2

$GPGGA,224937.00,2712.38129,N,08227.11006,W,1M,-26.9,M,,*
69
$GPGSA,A,3,18,24,23,15,10,32,29,,05,,,,1.46,0.86,1.18*
06
$GPGSV,4,1,14,05,06,096,20,10,328,13,00,045,,15,31,043,29*
75
$GPGSV,4,2,14,18,79,161,31,22,08,,23,52,347,30,24,56,092,29*
75
$GPGSV,4,3,14,27,13,300,28,29,11,20,32,28,246,29,46,30,247,*7D

$GPGSV,4,4,14,48,34,1,49,227,*7B

$GPGLL,2712.38129,N,08227.11006,W,224937.00,$GPRMC,224938.00,A,2712.38134,N,08227.11003,W,0.097,,130722,,,A*
68
$GPVTG,,T,,M,0.097,N,0.179,K,A*2

$GPGGA,224938.00,2712.38134,N,08227.11003,W,1,09,3.3,M,-26.9,M,,*
68
$GPGSA,A,3,18,24,23,15,10,32,29,.18*06

$GPGSV,4,1,14,05,06,096,19,10,32,313,28,135,31,043,29*7F

$GPGSV,4,2,14,18,78,162,31,22,08,2352,347,30,24,56,092,29*
77
$GPGSV,4,3,14,27,13,300,28,29,11,188,20,32,28,246,29,46,30,247,*
7D
$GPGSV,4,4,14,48,34,244,,51,49,2B
$GPGLL,2712.38134,N,08227.11003,W,224938.00,A,A*
7A
$GPRMC,224939.00,A,2712.38138,N,08227.10997,W,0.132,,130722,,,A*
6E
$GPVTG,,T,,M,0.132,N,0.244,K,A*2$GPGGA,224939.00,2712.38138,N,08227.10997,W,1,09,0.86,3.3,-26.9,M,,*60

$GPGSA,A,3,18,24,23,15,10,32,29,27,05,,,,11.18*06

$GPGSV,4,1,14,05,06,096,18,10,32,313,28,13,,045,,15,31,043,29*
7E
$GPGSV,4,2,14,18,78,162,31,22,0852,347,30,24,56,092,29*
77
$GPGSV,4,3,14,27,13,300,28,29,118,20,32,28,246,28,46,30,247,*
7C
$GPGSV,4,4,14,48,34,244,,51,49,27,*7B

$GPGLL,2712.38138,N,08227.10997,W,224939.00,A,A*
$GPRMC,224940.00,A,2712.38138,N,08227.10997,W,0.083,,130722,,,A*
6B
$GPVTG,,T,,M,0.083,N,0.153,K,A*2

$GPGGA,224940.00,2712.38138,N,08227.10997,W,1,09,0.86,3M,-26.9,M,,*6E

$GPGSA,A,3,18,24,23,15,10,32,29,27,05,,0.86,1.18*06

$GPGSV,4,1,14,05,06,096,18,10,32,313,28,13045,,15,31,043,29*7E

$GPGSV,4,2,14,18,78,162,31,22,08,235,,47,30,24,56,092,29*77

$GPGSV,4,3,14,27,13,300,28,29,11,1,32,28,246,28,46,30,247,*7D

$GPGSV,4,4,14,48,34,244,,9,227,*7B

$GPGLL,2712.38138,N,08227.10997,W,224940.00,$GPRMC,224941.00,A,2712.38141,N,08227.11000,W,0.074,,130722,,,A*
6A
$GPVTG,,T,,M,0.074,N,0.138,K,A*2A

$GPGGA,224941.00,2712.38141,N,08227.11000,W,1,09,0.86M,-26.9,M,,*67

$GPGSA,A,3,18,24,23,15,10,32,29,27,05,,,.86,1.18*06

$GPGSV,4,1,14,05,06,096,18,10,32,313,28,13,00,045,,3,30*76

$GPGSV,4,2,14,18,78,162,31,22,08,235,,23,5247,29,24,56,092,29*7F

$GPGSV,4,3,14,27,00,28,29,11,188,20,32,28,246,28,46,37C
$GPGSV,4,4,14,48,34,244,,51,49,227,*
7B
$GPGLL,2712.38141,N,08227.11000,4941.00,A,A*75

$GPRMC,224942.00,A,2712.38145,N,08227.11001,W,0.059,,130722,,,A*
63
$GPVTG,,T,,M,0.059,N,0.109,K,A*2$GPGG
A,224942.00,2712.38145,N,08227.11001W,1,09,0.86,3.1,M,-26.9,M,,*
63
$GPGSA,A,3,18,24,23,15,10,32,29,5,,,,1.46,0.86,1.18*
06
$GPGSV,4,1,14,05,06,096,17,10,323,28,13,00,045,,15,31,043,31*
78
$GPGSV,4,2,14,18,78,162,31,22,08,347,29,24,56,092,27*
71
$GPGSV,4,3,14,27,13,300,28,29,11,20,32,28,246,31,46,30,247,*
74
$GPGSV,4,4,14,48,34,244,,51,49,2B
$GPGLL,2712.38145,N,08227.11001,W,224942.00,A,A*
73
$GPRMC,224943.00,A,2712.38145,N,08227.11001,W,0.033,,130722,,,A*
6E
$GPVTG,,T,,M,0.033,N,0.061,K,A*2GPGGA,2
24943.00,2712.38145,N,08227.11001,W,1,09,0.86,2.9,M,-26.9,M,,*6B

$GPGSA,A,3,18,210,32,29,27,05,,,,1.46,0.86,1.18*06

$GPGSV,4,1,14,05,06,17,10,32,313,28,13,00,045,,15,31,043,32SV,4,2,14,18,78,162,32,22,08,235,,23,52,348,29,24,56,092,25*
7F
$GPGSV,4,3,14,27,13,300,28,29,1120,32,28,246,31,46,30,247,*
74
$GPGSV,4,4,14,48,34,244,,51,49,2*7B

$GPGLL,2712.38145,N,08227.11001,W,22494.00,A,A*7
2
$GPRMC,224944.00,A,2712.38137,N,08227.10994,W,0.236,,130722,,,A*
6F
$GPVTG,,T,,M,0.236,N,0.436,K,A*25

$GPGGA,224944.00,2712.38137,N,08227.10994,9,0.86,2.6,M,-26.9,M,,*
62
$GPGSA,A,3,18,24,23,15,10,32,29,7,05,,,,1.46,0.86,1.18*
06
$GPGSV,4,1,14,05,06,096,17,10,323,27,13,00,045,,15,31,043,31*
77
$GPGSV,4,2,14,18,78,162,32,22,08,,23,52,348,29,24,56,092,23*79

$GPGSV,4,3,14,27,0,29,29,11,188,20,32,28,246,31,46,30,247,*75

$GPGSV,4,448,34,244,,51,49,227,*7B

$GPGLL,2712.38137,8227.10994,W,224944.00,A,A*74

$GPRMC,224945.00,A,2712.38134,N,08227.10994,W,0.146,,130722,,,A*
69
$GPVTG,,T,,M,0.146,N,0.270,K,A*2GPGGA,224945
.00,2712.38134,N,08227.10994,W,1,09,86,2.5,M,-26.9,M,,*
63
$GPGSA,A,3,18,24,23,15,10,32,29,5,,,,1.46,0.86,1.18*
06
$GPGSV,4,1,14,05,06,096,18,10,32,27,13,00,045,,15,31,043,31*
78
$GPGSV,4,2,14,18,78,162,32,22,082,348,29,24,56,092,22*
78
$GPGSV,4,3,14,27,13,300,29,29,11,19,32,28,246,32,46,30,247,*
7C
$GPGSV,4,4,14,48,34,244,,51,49,27B
$GPGLL,2712.38134,N,08227.10994,W,224945.00,A,A*76
$GPRMC,224946.00,A,2712.38133,N,08227.10996,W,0.123,,130722,,,A*
6C
$GPVTG,,T,,M,0.123,N,0.229,K,A*2

$GPGGA,224946.00,2712.38133,N,08227.10996,W,1,09,.86,2.5,M,-26.9,M,,*
65
$GPGSA,A,3,18,24,23,15,10,32,29,,,,,1.46,0.86,1.18*
06
$GPGSV,4,1,14,05,06,096,17,10,32,27,13,00,045,,15,31,043,31*
77
$GPGSV,4,2,14,18,78,162,32,22,0835,,23,52,348,29,24,56,092,22*
78
$GPGSV,4,3,14,27,13,300,29,29,11,32,28,246,32,46,30,247,*
7C
$GPGSV,4,4,14,48,34,244,,51,49,2*7B

$GPGLL,2712.38133,N,08227.10996,W,224946.00,A$GPRMC,224947.00,A,2712.38135,N,08227.10997,W,0.029,,130722,,,A*
61
$GPVTG,,T,,M,0.029,N,0.053,K,A*2GPGGA,224947.00,2
712.38135,N,08227.10997,W,1,09,0.86,,M,-26.9,M,,*65

$GPGSA,A,3,18,24,23,15,10,32,29,27,05,,,,46,0.86,1.18*06

$GPGSV,4,1,14,05,06,096,18,10,32,313,2713,00,045,,15,31,043,32*7B

$GPGSV,4,2,14,18,78,1622,08,235,,23,52,348,29,24,56,092,21*7B

$GPGSV,4,3,14,2,13,300,29,29,11,188,20,32,28,246,31,46,30,247,*75

$GPV,4,4,14,48,34,244,,51,49,227,*7B

$GPGLL,2712.38135,N,0.10997,W,224947.00,A,A*76

$GPRMC,224948.00,A,2712.38134,N,08227.10997,W,0.045,,130722,,,A*
65
$GPVTG,,T,,M,0.045,N,0.083,K,A*2

$GPGGA,224948.00,2712.38134,N,08227.10997,W,1,09,0.86.1,M,-26.9,M,,*69

$GPGSA,A,3,18,24,23,15,10,32,29,27,0,1.46,0.86,1.18*06

$GPGSV,4,1,14,05,06,096,18,10,32,313,27,13,0,045,,15,31,043,31*78

$GPGSV,4,2,14,18,78,162,32,22,08,232,348,29,24,56,092,21*7B

$GPGSV,4,3,14,27,13,300,29,29,,20,32,28,246,32,46,30,247,*77

$GPGSV,4,4,14,48,34,244,49,227,*7B

$GPGLL,2712.38134,N,08227.10997,W,224948.078
$GPRMC,224949.00,A,2712.38136,N,08227.11003,W,0.058,,130722,,,A*
6F
$GPVTG,,T,,M,0.058,N,0.108,K,A*27

$GPGGA,224949.00,2712.38136,N,08227.11003,W,1,09,0.86,-26.9,M,,*6C

$GPGSA,A,3,18,24,23,15,10,32,29,27,05,,,,.86,1.18*06

$GPGSV,4,1,14,05,06,096,18,10,32,313,29,13,00,15,31,043,30*77

$GPGSV,4,2,14,18,78,162,33,22,08,22,348,30,24,56,092,21*72

$GPGSV,4,3,14,300,29,29,10,188,20,32,28,246,32,46,30,2*77

$GPGSV,4,4,14,48,34,244,,51,49,227$GPGLL,2712.38136,N,08227.11003,W,224949.00,7E
$GPRMC,224950.00,A,2712.38134,N,08227.11007,W,0.182,,130722,,,A*
67
$GPVTG,,T,,M,0.182,N,0.336,K,A*2GPGG
A,224950.00,2712.38134,N,08227.1100709,0.86,2.1,M,-26.9,M,,*
61
$GPGSA,A,3,18,24,23,15,10,32,29,05,,,,1.46,0.86,1.18*
06
$GPGSV,4,1,14,05,06,096,18,10,3213,00,045,,15,31,043,30*
77
$GPGSV,4,2,14,18,78,162,33,22,08,52,348,29,24,56,092,20*
7B
$GPGSV,4,3,14,27,13,300,30,29,1088,20,32,28,246,32,46,30,247,*
7F
$GPGSV,4,4,14,48,34,244,,51,49,27B
$GPGLL,2712.38134,N,08227.11007,W,224950.00,A,A*
70
$GPRMC,224951.00,A,2712.38131,N,08227.11007,W,0.056,,130722,,,A*
6B
$GPVTG,,T,,M,0.056,N,0.104,K,A*2A,22495
1.00,2712.38131,N,08227.11007,W,1,09,2.1,M,-26.9,M,,*
65
$GPGSA,A,3,18,24,23,15,10,32,29,,,1.46,0.86,1.18*06

$GPGSV,4,1,14,05,06,096,32,313,29,13,00,045,,15,31,043,29*7E

$GPGSV,4,2,14,18,62,33,22,08,235,,23,52,348,29,24,56,092,21*7AGSV,4,3,
14,27,13,300,30,29,10,188,20,32,28,26,30,247,*
7F
$GPGSV,4,4,14,48,34,244,,51,49,2
$GPGLL,2712.38131,N,08227.11007,W,224951.00,A,A*
74
$GPRMC,224952.00,A,2712.38133,N,08227.11014,W,0.085,,130722,,,A*
66
$GPVTG,,T,,M,0.085,N,0.157,K,A*2

$GPGGA,224952.00,2712.38133,N,08227.11014,W0.86,2.0,M,-26.9,M,,*
67
$GPGSA,A,3,18,24,23,15,10,32,29,,05,,,,1.46,0.86,1.18*
06
$GPGSV,4,1,14,05,06,096,19,10,323,28,13,00,045,,15,31,043,30*
77
$GPGSV,4,2,14,18,78,162,33,22,08,,23,52,348,29,24,56,092,20*
7B
$GPGSV,4,3,14,27,13,300,30,29,108,20,32,28,246,32,46,30,247,*7F

$GPGSV,4,4,14,48,344,,51,49,227,*7B

$GPGLL,2712.38133,N,08227.11014,W,2249,A*77

$GPRMC,224953.00,A,2712.38132,N,08227.11019,W,0.047,,130722,,,A*
65
$GPVTG,,T,,M,0.047,N,0.086,K,A*2

$GPGGA,224953.00,2712.38132,N,08227.11019,W,0.86,2.0,M,-26.9,M,,*
6A
$GPGSA,A,3,18,24,23,15,10,32,29,,05,,,,1.46,0.86,1.18*
06
$GPGSV,4,1,14,05,06,096,19,10,3228,13,00,045,,15,31,043,31*
76
$GPGSV,4,2,14,18,78,162,32,22,08,,23,52,348,29,24,56,092,20*
7A
$GPGSV,4,3,14,27,13,300,29,29,109,32,28,246,32,46,30,247,*
7D
$GPGSV,4,4,14,48,34,244,,51,49,27B
$GPGLL,2712.38132,N,08227.11019,W,224953.00,A,A*
7A
$GPRMC,224954.00,A,2712.38138,N,08227.11029,W,0.088,,130722,,,A*
68
$GPVTG,,T,,M,0.088,N,0.163,K,A*2PGGA,224954.00
,2712.38138,N,08227.11029,W,1,09,0.8,M,-26.9,M,,*6
5
$GPGSA,A,3,18,24,23,15,10,32,29,27,05,,,,1.46,0.86,1.18*
06
$GPGSV,4,1,14,05,06,096,20,10,32,313,28,13,00,045,,15,31,043,31*
7C
$GPGSV,4,2,14,18,78,162,33,22,08,,23,52,348,29,24,56,092,20*
7B
$GPGSV,4,3,14,27,13,300,29,29,108,19,32,28,246,32,46,30,247,*
7D
$GPGSV,4,4,14,48,34,244,,51,49,2,*7B

$GPGLL,2712.38138,N,08227.11029,W,224954.00,A,
$GPRMC,224955.00,A,2712.38141,N,08227.11035,W,0.049,,130722,,,A*
67
$GPVTG,,T,,M,0.049,N,0.091,K,A*26

$A,224955.00,2712.38141,N,08227.11035,W,1,09,0.86,2.M,-26.9,M,,*67

$GPGSA,A,3,18,24,23,15,10,32,29,27,0546,0.86,1.18*06

$GPGSV,4,1,14,05,06,096,19,10,32,313,280,045,,15,31,043,31*76

$GPGSV,4,2,14,18,78,162,33,22,0823,52,348,29,24,56,092,19*71

$GPGSV,4,3,14,27,13,30,10,188,20,32,28,246,32,46,30,247,*7F

$GPGSV,4,4,14,48244,,51,49,227,*7B

$GPGLL,2712.38141,N,08227.11035,W,200,A,A*76

$GPRMC,224956.00,A,2712.38140,N,08227.11035,W,0.067,,130722,,,A*
69
$GPVTG,,T,,M,0.067,N,0.124,K,A*25

$GPGGA,224956.00,2712.38140,N,08227.11035,W,1,09,0..0,M,-26.9,M,,*64

$GPGSA,A,3,18,24,23,15,10,32,29,27,06,0.86,1.18*06

$GPGSV,4,1,14,05,06,096,19,10,32,313,285,,15,31,043,30*77

$GPGSV,4,2,14,18,78,162,33,22,08,23552,348,29,24,56,092,19*71

$GPGSV,4,3,14,27,13,300,30,29,10,,32,28,246,32,46,30,247,*7F

$GPGSV,4,4,14,48,34,244,,517,*7B

$GPGLL,2712.38140,N,08227.11035,W,224956.00,A,A*
$GPRMC,224957.00,A,2712.38140,N,08227.11031,W,0.022,,130722,,,A*
6D
$GPVTG,,T,,M,0.022,N,0.040,K,A*2GGA,224957.00,2712.381
40,N,08227.11031,W,1,09,0.86,1.8,M,-,,*6A

$GPGSA,A,3,18,24,23,15,10,32,29,27,05,,,,1.46,0.88*06

$GPGSV,4,1,14,05,06,096,19,10,32,313,28,13,00,045,,31,043,30*77

$GPGSV,4,2,14,18,78,162,33,22,08,235,,23,5,24,56,092,20*7B

$GPGSV,4,3,14,27,13,300,30,29,108,20,32,28,246,32,46,30,247,*7F

$GPGSV,,48,34,244,,51,49,227,*7B

$GPGLL,2712.3N,08227.11031,W,224957.00,A,A*71

$GPRMC,224958.00,A,2712.38141,N,08227.11034,W,0.056,,130722,,,A*
65
$GPVTG,,T,,M,0.056,N,0.105,K,A*2$GPG
GA,224958.00,2712.38141,N,08227.1103,09,0.86,1.8,M,-26.9,M,,*
61
$GPGSA,A,3,18,24,23,15,10,32,29,05,,,,1.46,0.86,1.18*
06
$GPGSV,4,1,14,05,06,096,19,10,323,28,13,00,045,,15,31,043,31*
76
$GPGSV,4,2,14,18,78,162,33,22,08,,23,52,348,29,24,56,092,20*
7B
$GPGSV,4,3,14,27,13,300,30,29,1088,20,32,28,246,32,46,30,247,*
7F
$GPGSV,4,4,14,48,34,244,,51,49,2
$GPGLL,2712.38141,N,08227.11034,W,224958.00,A,A*
7A
$GPRMC,224959.00,A,2712.38134,N,08227.11034,W,0.119,,130722,,,A*
6C
$GPVTG,,T,,M,0.119,N,0.221,K,A*2GGA,224959.00,2712.38134,N,08227.11034,W,1,0,1.6,M,-26.9,M,,*6C

$GPGSA,A,3,18,24,23,15,10,32,29,27,05,,,,1.46,0.86,1.18*
06
$GPGSV,4,1,14,05,06,096,18,10,32313,29,13,00,045,,15,31,043,30*
77
$GPGSV,4,2,14,18,78,162,33,22,085,,23,52,348,30,24,56,092,21*
72
$GPGSV,4,3,14,27,13,300,31,29,1088,19,32,28,246,32,46,30,247,*
74
$GPGSV,4,4,14,48,34,244,,51,49,27,*7B

$GPGLL,2712.38134,N,08227.11034,W,22490,A,A*79

$GPRMC,225000.00,A,2712.38135,N,08227.11036,W,0.061,,130722,,,A*
65
$GPVTG,,T,,M,0.061,N,0.113,K,A*2

$GPGGA,225000.00,2712.38135,N,08227.11036,W6,1.6,M,-26.9,M,,*
6B
$GPGSA,A,3,18,24,23,15,10,32,29,,,,1.46,0.86,1.18*
06
$GPGSV,4,1,14,05,06,096,18,10,323,29,13,00,045,,15,31,043,29*7F

$GPGSV,4,2,14,18162,33,22,08,235,,23,52,348,30,24,56,092,22*71

$GPGSV,427,13,300,31,29,10,188,19,32,28,246,33,46,30
$GPGSV,4,4,14,48,34,244,,51,49,227,*
7B
$GPGLL,2712.38135,N,08227.11036,0,A,A*7E

$GPRMC,225001.00,A,2712.38134,N,08227.11037,W,0.029,,130722,,,A*
68
$GPVTG,,T,,M,0.029,N,0.054,K,A*2

$GPGGA,225001.00,2712.38134,N,08227.11037,W1.5,M,-26.9,M,,*
69
$GPGSA,A,3,18,24,23,15,10,32,29,5,,,,1.46,0.86,1.18*
06
$GPGSV,4,1,14,05,06,096,18,10,323,00,045,,15,31,043,33*
74
$GPGSV,4,2,14,18,78,162,33,22,08235,,23,52,348,29,24,56,092,21*
7A
$GPGSV,4,3,14,27,13,300,30,29,108,19,32,28,246,32,46,30,247,*
75
$GPGSV,4,4,14,48,34,244,,51,49,27B
$GPGLL,2712.38134,N,08227.11037,W,225001.00,A,A*7F
$GPRMC,225002.00,A,2712.38135,N,08227.11040,W,0.104,,130722,,,A*
64
$GPVTG,,T,,M,0.104,N,0.193,K,A*2

$GPGGA,225002.00,2712.38135,N,08227.11040,W,1,.86,1.6,M,-26.9,M,,*
68
$GPGSA,A,3,18,24,23,15,10,32,29,5,,,,1.46,0.86,1.18*
06
$GPGSV,4,1,14,05,06,096,18,10,32,13,00,045,,15,31,043,30*
77
$GPGSV,4,2,14,18,78,162,33,22,08,235,,23,52,348,29,24,56,092,23*
78
$GPGSV,4,3,14,27,13,300,30,29,10188,19,32,28,246,31,46,30,247,*76

$GPGSV,4,4,14,48,34,244,,51,49,227,B
$GPGLL,2712.38135,N,08227.11040,W,225002.00,A,A*
7D
$GPRMC,225003.00,A,2712.38134,N,08227.11041,W,0.041,,130722,,,A*
65
$GPVTG,,T,,M,0.041,N,0.075,K,A*2GGA,225003.00,271
2.38134,N,08227.11041,W,1,09,0.86,1.26.9,M,,*69

$GPGSA,A,3,18,24,23,15,10,32,29,27,05,,,,1..86,1.18*06

$GPGSV,4,1,14,05,06,096,18,10,32,313,28,13,5,31,043,30*76

$GPGSV,4,2,14,18,78,162,33,22,08,2323,52,348,29,24,56,092,22*79

$GPGSV,4,3,14,27,13,329,10,188,19,32,28,246,32,46,30,247,*74

$GPGSV,4,4,14,4,244,,51,49,227,*7B

$GPGLL,2712.38134,N,08227.11041,W225003.00,A,A*7C

$GPRMC,225004.00,A,2712.38133,N,08227.11044,W,0.026,,130722,,,A*
61
$GPVTG,,T,,M,0.026,N,0.049,K,A*2GA,225004.00,2712.38
133,N,08227.11044,W,1,09,0.86,1.7,M,9,M,,*6D

$GPGSA,A,3,18,24,23,15,10,32,29,27,05,,,,1.466
$GPGSV,4,1,14,05,06,096,17,10,32,313,28,13,00,045,,15,31,043,31*
78
$GPGSV,4,2,14,18,78,162,33,22,0835,,23,52,348,29,24,56,092,21*7A

$GPGSV,4,3,14,27,13,300,30,188,19,32,28,246,32,46,30,247,*74

$GPGSV,4,4,14,48,349,227,*7B

$GPGLL,2712.38133,N,08227.11044,W,225004.00,79
$GPRMC,225005.00,A,2712.38132,N,08227.11044,W,0.033,,130722,,,A*
65
$GPVTG,,T,,M,0.033,N,0.062,K,A*27

$GPGGA,225005.00,2712.38132,N,08227.11044,W,1,09,0.86,-26.9,M,,*6D

$GPGSA,A,3,18,24,23,15,10,32,29,27,05,,,,0.86,1.18*06

$GPGSV,4,1,14,05,06,096,17,10,32,313,28,13,,15,31,043,31*78

$GPGSV,4,2,14,18,78,162,33,22,08,235,,2,348,29,24,56,092,20*7B

$GPGSV,4,3,14,27,13,300,319,10,188,19,32,28,246,32,46,30,247,*74

V,4,4,14,48,34,244,,51,49,227,*7B

$GPGL2712.38132,N,08227.11044,W,225005.00$GPRMC,225006.00,A,2712.38135,N,08227.11045,W,0.083,,130722,,,A*
6B
$GPVTG,,T,,M,0.083,N,0.155,K,A*29

$GPGGA,225006.00,2712.38135,N,08227.1045,W,1,09,0.86,1.7,M,-26.9,M,,*
68
$GPGSA,A,3,18,24,23,15,10,32,29,7,05,,,,1.46,0.86,1.18*
06
$GPGSV,4,1,14,05,06,096,18,10,323,29,13,00,045,,15,31,043,30*
77
$GPGSV,4,2,14,18,78,162,34,22,08235,17,23,52,348,30,24,56,092,24*
76
$GPGSV,4,3,14,27,13,300,32,29,10,20,32,28,246,31,46,30,247,*
7E
$GPGSV,4,4,14,48,34,244,,51,49,21*79

$GPGLL,2712.38135,N,08227.11045,W,22.00,A,A*
7C
$GPRMC,225007.00,A,2712.38141,N,08227.11049,W,0.164,,130722,,,A*
6D
$GPVTG,,T,,M,0.164,N,0.303,K,A*2PGGA,2
25007.00,2712.38141,N,08227.11049,W,9,0.86,1.8,M,-26.9,M,,*69

$GPGSA,A,3,18,24,0,32,29,27,05,,,,1.46,0.86,1.18*06

$GPGSV,4,1,14,05,06,8,10,32,313,28,13,00,045,,15,31,043,29*7V,4,2,1
4,18,78,162,33,22,08,235,14,23,52,349,24,56,092,26*
78
$GPGSV,4,3,14,27,13,300,31,29,109,32,28,246,30,46,30,247,*
76
$GPGSV,4,4,14,48,34,244,,51,49,2,30*78

$GPGLL,2712.38141,N,08227.11049,W,2257.00,A,A*
72
$GPRMC,225008.00,A,2712.38142,N,08227.11049,W,0.046,,130722,,,A*
60
$GPVTG,,T,,M,0.046,N,0.086,K,A*2$GPGGA,22
5008.00,2712.38142,N,08227.11049,W,1,0.86,1.9,M,-26.9,M,,*
64
$GPGSA,A,3,18,24,23,15,10,32,29,05,,,,1.46,0.86,1.18*
06
$GPGSV,4,1,14,05,06,096,19,10,32,313,28,13,00,045,,15,31,043,29*7F

$GPGSV,4,2,178,162,33,22,08,235,12,23,52,348,29,24,56,092,27*7F

$GP14,27,13,300,31,29,10,188,19,32,28,246,29,46,7,*7E

$GPGSV,4,4,14,48,34,244,,51,49,227,31*GLL,2712.3
8142,N,08227.11049,W,225008.00,A,A*7
$GPRMC,225009.00,A,2712.38135,N,08227.11045,W,0.113,,130722,,,A*
6C
$GPVTG,,T,,M,0.113,N,0.209,K,A*2GPGGA,22500
9.00,2712.38135,N,08227.11045,W,1,0986,1.5,M,-26.9,M,,*
65
$GPGSA,A,3,18,24,23,15,10,32,29,.46,0.86,1.18*
06
$GPGSV,4,1,14,05,06,096,20,10,32,28,13,00,045,,15,31,043,29*
75
$GPGSV,4,2,14,18,78,162,33,22,0835,11,23,52,348,28,24,56,092,27*
7D
$GPGSV,4,3,14,27,13,300,31,29,10,188,20,32,28,246,29,46,30,247,*74

$GPGSV,4,4,14,48,3,,51,49,227,31*79

$GPGLL,2712.38135,N,08227.11045,W,22500,A,A*73

$GPRMC,225010.00,A,2712.38133,N,08227.11043,W,0.040,,130722,,,A*
63
$GPVTG,,T,,M,0.040,N,0.074,K,A*24

$25010.00,2712.38133,N,08227.11043,W,1,09,0.86,1.3,M,,*6B

$GPGSA,A,3,18,24,23,15,10,32,29,27,05,,,,1.18*06

$GPGSV,4,1,14,05,06,096,20,10,32,313,20,045,,15,31,043,29*
75
$GPGSV,4,2,14,18,78,162,33,22,085,09,23,52,348,28,24,56,092,28*
7B
$GPGSV,4,3,14,27,13,300,31,29,108,19,32,28,246,30,46,30,247,*
76
$GPGSV,4,4,14,48,34,244,,51,49,230*78

$GPGLL,2712.38133,N,08227.11043,W,225010.00A*7B

$GPRMC,225011.00,A,2712.38136,N,08227.11047,W,0.100,,130722,,,A*
66
$GPVTG,,T,,M,0.100,N,0.184,K,A*2GA,225011.00,271
2.38136,N,08227.11047,W,1,09,0.86,1.M,-26.9,M,,*69

$GPGSA,A,3,18,24,23,15,10,32,29,27,05,,,1.46,0.86,1.18*
06
$GPGSV,4,1,14,05,06,096,19,10,32313,29,13,00,045,,15,31,043,29*
7E
$GPGSV,4,2,14,18,78,162,33,22,08,09,23,52,348,28,24,56,092,27*
74
$GPGSV,4,3,14,27,13,300,31,29,1032,28,246,30,46,30,247,*
76
$GPGSV,4,4,14,48,34,244,,51,49,2,30*78

$GPGLL,2712.38136,N,08227.11047,W,225011.00,A,A*
$GPRMC,225012.00,A,2712.38135,N,08227.11047,W,0.075,,130722,,,A*
65
$GPVTG,,T,,M,0.075,N,0.139,K,A*2A

$GPGGA,225012.00,2712.38135,N,08227.11047,W,1,09,0.86,1.6.9,M,,*68

$GPGSA,A,3,18,24,23,15,10,32,29,27,05,,,,1.4,1.18*06

$GPGSV,4,1,14,05,06,096,20,10,32,313,29,13,00043,29*74

$GPGSV,4,2,14,18,78,162,32,22,08,235,09,23,5,28,24,56,092,27*75

$GPGSV,4,3,14,27,13,300,31,29,10,18,32,28,246,29,46,30,247,*74

$GPGSV,4,4,14,48,34,244,,51227,30*78

$GPGLL,2712.38135,N,08227.11047,W,225012.00,$GPRMC,225013.00,A,2712.38131,N,08227.11044,W,0.108,,130722,,,A*
68
$GPVTG,,T,,M,0.108,N,0.200,K,A*2GGA,225013.00,2712.381
31,N,08227.11044,W,1,09,0.86,0.7,M,-,,*68

$GPGSA,A,3,18,24,23,15,10,32,29,27,05,,,,1.46,0.86,.18*06

$GPGSV,4,1,14,05,06,096,20,10,32,313,28,13,00,0443,29*75

$GPGSV,4,2,14,18,78,162,32,22,08,235,09,23,52,348,,56,092,27*75

$GPGSV,4,3,14,27,13,300,31,29,10,188,19,3,29,46,30,247,*7E

$GPGSV,4,4,14,48,34,244,,51,49,227,30PGLL,2712.38131,N,08227.11044,W,225013.00,A,A*7D

$GPRMC,225014.00,A,2712.38124,N,08227.11037,W,0.037,,130722,,,A*
62
$GPVTG,,T,,M,0.037,N,0.069,K,A*2

$GPGGA,225014.00,2712.38124,N,08227.1100.86,0.4,M,-26.9,M,,*
6C
$GPGSA,A,3,18,24,23,15,10,32,29,7,05,,,,1.46,0.86,1.18*
06
$GPGSV,4,1,14,05,06,096,20,10,3228,13,00,045,,15,31,043,29*
75
$GPGSV,4,2,14,18,78,162,33,22,0835,07,23,52,348,28,24,56,092,27*
7A
$GPGSV,4,3,14,27,13,300,31,29,10,19,32,28,246,29,46,30,247,*
7E
$GPGSV,4,4,14,48,34,244,,51,49,2$GPGLL,2712.38124,N,08227.11037,W,225014.00,$GPRMC,225015.00,A,2712.38121,N,08227.11032,W,0.048,,130722,,,A*
6B
$GPVTG,,T,,M,0.048,N,0.089,K,A*2E

$GPGGA,225015.00,2712.38121,N,08227.1,W,1,09,0.86,0.1,M,-26.9,M,,*
68
$GPGSA,A,3,18,24,23,15,10,32,29,05,,,,1.46,0.86,1.18*
06
$GPGSV,4,1,14,05,06,096,20,10,32,31,043,29*
74
$GPGSV,4,2,14,18,78,162,33,22,08,23,52,348,28,24,56,092,27*
7A
$GPGSV,4,3,14,27,13,300,31,29,108,32,28,246,29,46,30,247,*
7F
$GPGSV,4,4,14,48,34,244,,51,49,27,30*78

$GPGLL,2712.38121,N,08227.11032,W,220,A,A*7B

$GPRMC,225016.00,A,2712.38124,N,08227.11033,W,0.035,,130722,,,A*
66
$GPVTG,,T,,M,0.035,N,0.065,K,A*2GPGGA,225
016.00,2712.38124,N,08227.11033,W,1,,0.1,M,-26.9,M,,*6F

$GPGSA,A,3,18,24,23,15,10,327,05,,,,1.46,0.86,1.18*06

$GPGSV,4,1,14,05,06,096,20,10313,29,13,00,045,,15,31,043,29*74

$GPGSV,4,,78,162,33,22,08,235,07,23,52,348,27,24,56,0975
$GPGSV,4,3,14,27,13,300,31,29,10,188,18,32,28,246,29,46,30,247,*
7F
$GPGSV,4,4,14,48,34,244,,51,49,227,30*78

$GPGLL,2712.38124,N,08227.11033,W,226.00,A,A*7
C
$GPRMC,225017.00,A,2712.38127,N,08227.11036,W,0.042,,130722,,,A*
61
$GPVTG,,T,,M,0.042,N,0.078,K,A*2GPGGA,22501
7.00,2712.38127,N,08227.11036,W,1,096,0.1,M,-26.9,M,,*
68
$GPGSA,A,3,18,24,23,15,10,32,29,5,,,,1.46,0.86,1.18*
06
$GPGSV,4,1,14,05,06,096,20,10,3213,29,13,00,045,,15,31,043,29*74

$GPGSV,4,2,14,18,78,162,33,22,08,2353,52,348,27,24,56,092,27*75

$GPGSV,4,3,14,27,13,39,10,188,18,32,28,246,29,46,30,247,*7F

$GPGSV,4,4,14,48,,244,,51,49,227,30*78

$GPGLL,2712.38127,N,08227.1,225017.00,A,A*7B

$GPRMC,225018.00,A,2712.38124,N,08227.11031,W,0.142,,130722,,,A*
6B
$GPVTG,,T,,M,0.142,N,0.263,K,A*2GPGGA,225018.00
,2712.38124,N,08227.11031,W,1,09,0.83,M,-26.9,M,,*
4C
$GPGSA,A,3,18,24,23,15,10,32,29,,05,,,,1.46,0.86,1.18*
06
$GPGSV,4,1,14,05,06,096,19,10,323,29,13,00,045,,15,31,043,29*
7E
$GPGSV,4,2,14,18,78,162,33,22,0807,23,52,348,27,24,56,092,27*
75
$GPGSV,4,3,14,27,13,300,31,29,1088,18,32,28,246,29,46,30,247,*
7F
$GPGSV,4,4,14,48,34,244,,51,49,227,30*78

$GPGLL,2712.38124,N,08227.11031,W,225018.00,A,
$GPRMC,225019.00,A,2712.38123,N,08227.11031,W,0.043,,130722,,,A*
6D
$GPVTG,,T,,M,0.043,N,0.079,K,A*2A

$GPGGA,225019.00,2712.38123,N,08227.11031,W,1,0,-0.3,M,-26.9,M,,*
4A
$GPGSA,A,3,18,24,23,15,10,32,29,7,05,,,,1.46,0.86,1.18*
06
$GPGSV,4,1,14,05,06,096,20,10,323,00,045,,15,30,043,29*
75
$GPGSV,4,2,14,18,78,162,33,22,08,,23,52,348,27,24,56,092,27*
72
$GPGSV,4,3,14,27,13,300,31,29,108,32,28,246,29,46,30,247,*
7F
$GPGSV,4,4,14,48,34,244,,51,49,2,30*78

$GPGLL,2712.38123,N,08227.11031,W,225019.00,A,A
$GPRMC,225020.00,A,2712.38127,N,08227.11030,W,0.051,,130722,,,A*
61
$GPVTG,,T,,M,0.051,N,0.094,K,A*2

$GPGGA,225020.00,2712.38127,N,08227.11030,W,1,09,0.86,.3,M,-26.9,M,,*45

$GPGSA,A,3,18,24,23,15,10,32,29,27,05,,,,0.86,1.18*06

$GPGSV,4,1,14,05,06,096,19,10,32,313,28,1,,15,30,043,29*7E

$GPGSV,4,2,14,18,78,162,33,22,08,,52,348,27,24,56,092,27*72

$GPGSV,4,3,14,27,13,300,0,188,19,32,28,246,29,46,30,247,*7E

$GPGSV,4,4,14,48,244,,51,49,227,29*70

$GPGLL,2712.38127,N,08227.11030,W,020.00,A,A*79

$GPRMC,225021.00,A,2712.38130,N,08227.11032,W,0.005,,130722,,,A*
65
$GPVTG,,T,,M,0.005,N,0.010,K,A*2$GPGGA,225021.00,2712
.38130,N,08227.11032,W,1,09,0.86,-0.6.9,M,,*41

$GPGSA,A,3,18,24,23,15,10,32,29,27,05,,,,1.4,1.18*06

$GPGSV,4,1,14,05,06,096,20,10,32,313,28,13,00,15,30,043,29*74

$GPGSV,4,2,14,18,78,162,32,22,08,235,,23,52,348,24,56,092,27*7C

$GPGSV,4,3,14,27,13,300,31,29,10,188,1,28,246,29,46,30,247,*7E

$GPGSV,4,4,14,48,34,244,,51,497,30*78

$GPGLL,2712.38130,N,08227.11032,W,225021.007C
$GPRMC,225022.00,A,2712.38131,N,08227.11033,W,0.105,,130722,,,A*
67
$GPVTG,,T,,M,0.105,N,0.194,K,A*2

$GPGGA,225022.00,2712.38131,N,08227.110W,1,09,0.86,-0.2,M,-26.9,M,,*
42
$GPGSA,A,3,18,24,23,15,10,32,29,.46,0.86,1.18*
06
$GPGSV,4,1,14,05,06,096,20,10,323,28,13,00,045,,15,30,043,29*
74
$GPGSV,4,2,14,18,78,162,32,22,08,,23,52,348,27,24,56,092,27*
73
$GPGSV,4,3,14,27,13,300,30,29,108,18,32,28,246,29,46,30,247,*
7E
$GPGSV,4,4,14,48,34,244,,51,49,2,30*78

$GPGLL,2712.38131,N,08227.11033,W,220,A,A*7F

$GPRMC,225023.00,A,2712.38137,N,08227.11039,W,0.279,,130722,,,A*
62
$GPVTG,,T,,M,0.279,N,0.516,K,A*2$GPGGA
,225023.00,2712.38137,N,08227.11039,09,0.86,0.0,M,-26.9,M,,*
60
$GPGSA,A,3,18,24,23,15,10,32,29,,,1.46,0.86,1.18*
06
$GPGSV,4,1,14,05,06,096,19,10,323,28,13,00,045,,15,30,043,29*
7E
$GPGSV,4,2,14,18,78,162,32,22,08,23,52,348,27,24,56,092,27*
73
$GPGSV,4,3,14,27,13,300,31,29,1017,32,28,246,29,46,30,247,*
70
$GPGSV,4,4,14,48,34,244,,51,49,21*79

$GPGLL,2712.38137,N,08227.11039,W,22502.00,A,A*7
2
$GPRMC,225024.00,A,2712.38134,N,08227.11035,W,0.056,,130722,,,A*
65
$GPVTG,,T,,M,0.056,N,0.103,K,A*2

$GPGGA,225024.00,2712.38134,N,08227.11035,,1,09,0.86,-0.2,M,-26.9,M,,*
47
$GPGSA,A,3,18,24,23,15,10,32,29,05,,,,1.46,0.86,1.18*
06
$GPGSV,4,1,14,05,06,096,20,10,32,28,13,00,045,,15,30,043,29*
74
$GPGSV,4,2,14,18,78,162,32,22,085,,23,52,348,27,24,56,092,26*
72
$GPGSV,4,3,14,27,13,300,30,29,1088,17,32,28,246,29,46,30,247,*
71
$GPGSV,4,4,14,48,34,244,,51,49,27,31*79

$GPGLL,2712.38134,N,08227.11035,W,2250,A,A*7A

$GPRMC,225025.00,A,2712.38139,N,08227.11032,W,0.073,,130722,,,A*
69
$GPVTG,,T,,M,0.073,N,0.135,K,A*2$GPGGA,2250
25.00,2712.38139,N,08227.11032,W,1,0.86,-0.2,M,-26.9,M,,*4C

$GPGSA,A,3,18,24,23,15,127,05,,,,1.46,0.86,1.18*06

$GPGSV,4,1,14,05,06,096,19,13,28,13,00,045,,15,30,043,29*7E

$GPGSV,4,2,118,78,162,32,22,08,235,,23,52,348,27,24,56,092*72

$GPGSV,4,3,14,27,13,300,30,29,10,188,17,32,,246,29,46,30,247,*
71
$GPGSV,4,4,14,48,34,244,,51,49,21*79

$GPGLL,2712.38139,N,08227.11032,W,225025.0
$GPRMC,225026.00,A,2712.38138,N,08227.11030,W,0.076,,130722,,,A*
6C
$GPVTG,,T,,M,0.076,N,0.141,K,A*2GGA,225026.00,2
712.38138,N,08227.11030,W,1,09,0.86,.3,M,-26.9,M,,*
4D
$GPGSA,A,3,18,24,23,15,10,32,29,,1.46,0.86,1.18*
06
$GPGSV,4,1,14,05,06,096,19,10,323,28,13,00,045,,15,30,043,29*
7E
$GPGSV,4,2,14,18,78,162,32,22,08,,23,52,348,27,24,56,092,25*71

$GPGSV,4,3,14,27,13,309,10,188,17,32,28,246,29,46,30,247,*70

$GPGSV,4,4,14,484,,51,49,227,31*79

$GPGLL,2712.38138,N,08227.1103.00,A,A*71

$GPRMC,225027.00,A,2712.38140,N,08227.11030,W,0.006,,130722,,,A*
65
$GPVTG,,T,,M,0.006,N,0.011,K,A*2

$GPGGA,225027.00,2712.38140,N,08227.11030,W,1,09.3,M,-26.9,M,,*4
3
$GPGSA,A,3,18,24,23,15,10,32,29,21.46,0.86,1.18*06

$GPGSV,4,1,14,05,06,096,19,10,32,3,13,00,045,,15,30,043,29*
7F
$GPGSV,4,2,14,18,78,162,32,22,08,23,52,348,27,24,56,092,25*
71
$GPGSV,4,3,14,27,13,300,30,29,1088,17,32,28,246,29,46,30,247,*
71
$GPGSV,4,4,14,48,34,244,,51,49,21*79

$GPGLL,2712.38140,N,08227.11030,W,225027.00,A,A*7F

$GPRMC,225028.00,A,2712.38144,N,08227.11031,W,0.135,,130722,,,A*
6E
$GPVTG,,T,,M,0.135,N,0.249,K,A*2B

$GPGGA,225028.00,2712.38144,N,08227.11031,W,1,09,0.8,M,-26.9,M,,*4B

$GPGSA,A,3,18,24,23,15,10,32,29,27,05,,1.46,0.86,1.18*06

$GPGSV,4,1,14,05,06,096,18,10,32,318,13,00,045,,15,30,043,29*
7F
$GPGSV,4,2,14,18,78,162,32,22,08,,23,52,348,27,24,56,091,25*
72
$GPGSV,4,3,14,27,13,300,30,29,10188,17,32,28,246,29,46,30,247,*
71
$GPGSV,4,4,14,48,34,244,,51,49,20*78

$GPGLL,2712.38144,N,08227.11031,W,225028.00,A,A*7
$GPRMC,225029.00,A,2712.38149,N,08227.11038,W,0.026,,130722,,,A*
68
$GPVTG,,T,,M,0.026,N,0.047,K,A*2

$GPGGA,225029.00,2712.38149,N,08227.11038,W,1,09,0.86,26.9,M,,*63

$GPGSA,A,3,18,24,23,15,10,32,29,27,05,,,,1..86,1.18*06

$GPGSV,4,1,14,05,06,096,18,10,32,313,29,13,,15,30,043,29*7E

$GPGSV,4,2,14,18,78,162,32,22,08,235,,48,27,24,56,091,26*71

$GPGSV,4,3,14,27,13,300,31,29,10,182,28,246,29,46,30,247,*73

$GPGSV,4,4,14,48,34,244,,227,30*78

$GPGLL,2712.38149,N,08227.110,W,225029.00,A,A*70

$GPRMC,225030.00,A,2712.38152,N,08227.11037,W,0.061,,130722,,,A*
66
$GPVTG,,T,,M,0.061,N,0.113,K,A*27

$GPGGA,225030.00,2712.38152,N,08227.11037,W,1,09,0.86,0.1,M,-26.9,M,,*6E

$GPGSA8,24,23,15,10,32,29,27,05,,,,1.46,0.86,1.18*06

$GPGSV,45,06,096,18,10,32,313,29,13,00,045,,15,33,29*
7E
$GPGSV,4,2,14,18,78,162,32,22,085,,23,52,348,27,24,56,091,26*
71
$GPGSV,4,3,14,27,13,300,31,29,10,14,32,28,246,29,46,30,247,*
73
$GPGSV,4,4,14,48,34,244,,51,49,230*78

$GPGLL,2712.38152,N,08227.11037,W,25030.00,A,A*
7D
$GPRMC,225031.00,A,2712.38161,N,08227.11042,W,0.102,,130722,,,A*
61
$GPVTG,,T,,M,0.102,N,0.189,K,A*2GPGGA,
225031.00,2712.38161,N,08227.11042,W9,0.86,0.3,M,-26.9,M,,*
6F
$GPGSA,A,3,18,24,23,15,10,32,29,,,,,1.46,0.86,1.18*
06
$GPGSV,4,1,14,05,06,096,18,10,3229,13,00,045,,15,30,043,29*7E

$GPGSV,4,2,14,8,162,32,22,08,235,,23,52,348,27,24,56,091,26*71

$GPGSV13,300,31,29,10,188,15,32,28,246,28,46,3,*73

$GPGSV,4,4,14,48,34,244,,51,49,227,30*7

$GPGLL,2712.38161,N,08227.11042,W,225031.00,A*7E

$GPRMC,225032.00,A,2712.38162,N,08227.11040,W,0.158,,130722,,,A*
6C
$GPVTG,,T,,M,0.158,N,0.292,K,A*2A,225032.
00,2712.38162,N,08227.11040,W,1,09,00.2,M,-26.9,M,,*
6C
$GPGSA,A,3,18,24,23,15,10,32,29,05,,,,1.46,0.86,1.18*
06
$GPGSV,4,1,14,05,06,096,18,10,32,29,13,00,045,,15,30,043,29*
7E
$GPGSV,4,2,14,18,78,162,31,22,08,235,,23,52,348,27,24,56,091,26*
72
$GPGSV,4,3,14,27,13,300,30,29,1087,16,32,28,246,29,46,30,247,*7F

$GPGSV,4,4,14,44,,51,49,227,30*78

$GPGLL,2712.38162,N,08227.11040,W,22A,A*7C

$GPRMC,225033.00,A,2712.38165,N,08227.11040,W,0.152,,130722,,,A*
60
$GPVTG,,T,,M,0.152,N,0.282,K,A*2D

$GPGGA,225033.00,2712.38165,N,08227.11040,09,0.86,0.3,M,-26.9,M,,*
6B
$GPGSA,A,3,18,24,23,15,10,32,29,,,,,1.46,0.86,1.18*
06
$GPGSV,4,1,14,05,06,096,18,10,3229,13,00,045,,15,30,043,29*
7E
$GPGSV,4,2,14,18,78,162,31,22,08235,,23,52,348,27,24,56,091,26*
72
$GPGSV,4,3,14,27,13,300,30,29,10187,17,32,28,246,28,46,30,247,*
7F
$GPGSV,4,4,14,48,34,244,,51,49,230*78

$GPGLL,2712.38165,N,08227.11040,W,225033.
$GPRMC,225034.00,A,2712.38163,N,08227.11037,W,0.080,,130722,,,A*
6F
$GPVTG,,T,,M,0.080,N,0.148,K,A*2$GPGGA,225034.
00,2712.38163,N,08227.11037,W,1,09,00.2,M,-26.9,M,,*
6B
$GPGSA,A,3,18,24,23,15,10,32,29,5,,,,1.46,0.86,1.18*
06
$GPGSV,4,1,14,05,06,096,18,10,32,313,29,13,00,045,,15,30,043,29*
7E
$GPGSV,4,2,14,18,78,162,32,22,0823,52,348,27,24,56,091,25*
72
$GPGSV,4,3,14,27,13,300,30,29,10187,17,32,28,246,28,46,30,247,*
7F
$GPGSV,4,4,14,48,34,244,,51,49,20*78

$GPGLL,2712.38163,N,08227.11037,W,225034.00,7B
$GPRMC,225035.00,A,2712.38165,N,08227.11037,W,0.061,,130722,,,A*
67
$GPVTG,,T,,M,0.061,N,0.113,K,A*2$GPGGA,225035.00
,2712.38165,N,08227.11037,W,1,09,0.8,M,-26.9,M,,*6C

$GPGSA,A,3,18,24,23,15,10,32,29,27,5,,,,1.46,0.86,1.18*06

$GPGSV,4,1,14,05,06,096,18,10,3,13,00,045,,15,30,043,29*7E

$GPGSV,4,2,14,18,78,162,32,,235,,23,52,348,27,24,56,091,25*72

$GPGSV,4,3,14,2713,300,31,29,10,187,16,32,28,247,28,46,30,247,*7E

,4,4,14,48,34,244,,51,49,227,29*70

$GPGLL,2712.38165,N08227.11037,W,225035.00,A,A*7C

$GPRMC,225036.00,A,2712.38171,N,08227.11043,W,0.159,,130722,,,A*
68
$GPVTG,,T,,M,0.159,N,0.294,K,A*2GPGGA,225036.00,271
2.38171,N,08227.11043,W,1,09,0.86,0.26.9,M,,*68

$GPGSA,A,3,18,24,23,15,10,32,29,27,05,,,,,1.18*06

$GPGSV,4,1,14,05,06,096,18,10,32,313,29,13,00,43,29*7E

$GPGSV,4,2,14,18,78,162,32,22,08,235,,23,52,324,56,091,25*72

$GPGSV,4,3,14,27,13,300,31,29,10,187,16,32,47,29,46,30,247,*7F

$GPGSV,4,4,14,48,34,244,,51,49,227,70
$GPGLL,2712.38171,N,08227.11043,W,225036.00,A,A*79

$GPRMC,225037.00,A,2712.38172,N,08227.11041,W,0.061,,130722,,,A*
62
$GPVTG,,T,,M,0.061,N,0.112,K,A*2,225037.00,2712.38172,
N,08227.11041,W,1,09,0.86,0.2,M,-26.,M,,*69

$GPGSA,A,3,18,24,23,15,10,32,29,27,05,,,,1.46,0,1.18*06

$GPGSV,4,1,14,05,06,096,18,10,32,313,29,13,00,04,15,30,043,29*7E

$GPGSV,4,2,14,18,78,162,32,22,08,235,,48,27,24,56,091,25*72

$GPGSV,4,3,14,27,13,300,31,29,10,18,16,32,28,247,28,46,30,247,*7E

$GPGSV,4,4,14,48,34,,,51,49,227,30*78

$GPGLL,2712.38172,N,07.11041,W,225037.00,A,A*79

$GPRMC,225038.00,A,2712.38171,N,08227.11045,W,0.070,,130722,,,A*
6A
$GPVTG,,T,,M,0.070,N,0.130,K,A*2

$GPGGA,225038.00,2712.38171,N,08227.115,W,1,09,0.86,0.2,M,-26.9,M,,*
61
$GPGSA,A,3,18,24,23,15,10,32,29,,,,,1.46,0.86,1.18*
06
$GPGSV,4,1,14,05,06,096,19,10,32,13,00,045,,15,30,043,29*
77
$GPGSV,4,2,14,18,78,162,32,22,0835,,23,52,348,27,24,56,091,25*
72
$GPGSV,4,3,14,27,13,300,30,29,1016,32,28,247,28,46,30,247,*
7F
$GPGSV,4,4,14,48,34,244,,51,49,20*78

$GPGLL,2712.38171,N,08227.11045,W,238.00,A,A*
71
$GPRMC,225039.00,A,2712.38174,N,08227.11046,W,0.068,,130722,,,A*
64
$GPVTG,,T,,M,0.068,N,0.126,K,A*2

$GPGGA,225039.00,2712.38174,N,08227.11046,W.86,0.2,M,-26.9,M,,*66

$GPGSA,A,3,18,24,23,15,10,32,29,,1.46,0.86,1.18*06

$GPGSV,4,1,14,05,06,,10,32,313,29,13,00,045,,15,30,043,29*7F4,2,14,
18,78,162,32,22,08,235,,23,52,348,266,091,25*
73
$GPGSV,4,3,14,27,13,300,30,29,10,28,247,28,46,30,247,*
7E
$GPGSV,4,4,14,48,34,244,,51,49,27,30*78

$GPGLL,2712.38174,N,08227.11046,W,220,A,A*76

$GPRMC,225040.00,A,2712.38172,N,08227.11048,W,0.012,,130722,,,A*
6F
$GPVTG,,T,,M,0.012,N,0.022,K,A*2$GPGGA,225
040.00,2712.38172,N,08227.11048,W,1,09,0.86,0.1,M,-26.9,M,,*
63
$GPGSA,A,3,18,24,23,15,10,32,29,5,,,,1.46,0.86,1.18*06

$GPGSV,4,1,14,05,06,096,12,313,29,13,00,045,,15,30,043,29*7E

$GPGSV,4,2,14,18,782,22,08,235,,23,52,348,26,24,56,091,24*72

$GPGSV,27,13,300,30,29,10,187,17,32,28,247,28,46,307,*7E

$GPGSV,4,4,14,48,34,244,,51,49,227,30*GLL,2712.3
8172,N,08227.11048,W,225040.00,A,A*7
$GPRMC,225041.00,A,2712.38174,N,08227.11048,W,0.156,,130722,,,A*
69
$GPVTG,,T,,M,0.156,N,0.289,K,A*22

$GPGGA,225041.00,2712.38174,N,08227.11048,09,0.86,0.1,M,-26.9,M,,*
64
$GPGSA,A,3,18,24,23,15,10,32,29,,05,,,,1.46,0.86,1.18*
06
$GPGSV,4,1,14,05,06,096,18,10,3229,13,00,045,,15,30,043,29*
7E
$GPGSV,4,2,14,18,78,162,32,22,08,,23,52,348,25,24,56,091,24*71

$GPGSV,4,3,14,27,1,30,29,10,187,17,32,28,247,28,46,30,247,*7E

$GPGSV,4,4,4,244,,51,49,227,30*78

$GPGLL,2712.38174,N,0822048,W,225041.00,A,A*77

$GPRMC,225042.00,A,2712.38173,N,08227.11045,W,0.031,,130722,,,A*
60
$GPVTG,,T,,M,0.031,N,0.058,K,A*2GGA,225042.00,2
712.38173,N,08227.11045,W,1,09,0.86,1,M,-26.9,M,,*
40
$GPGSA,A,3,18,24,23,15,10,32,29,5,,,,1.46,0.86,1.18*
06
$GPGSV,4,1,14,05,06,096,18,10,3229,13,00,045,,15,30,043,29*
7E
$GPGSV,4,2,14,18,78,162,32,22,085,,23,52,348,25,24,56,091,24*
71
$GPGSV,4,3,14,27,13,300,30,29,107,32,28,247,28,46,30,247,*
7E
$GPGSV,4,4,14,48,34,244,,51,49,21*79

$GPGLL,2712.38173,N,08227.11045,W,225042.00,A,A*
$GPRMC,225043.00,A,2712.38176,N,08227.11045,W,0.055,,130722,,,A*
66
$GPVTG,,T,,M,0.055,N,0.102,K,A*2

$GPGGA,225043.00,2712.38176,N,08227.11045,W,1,09-0.1,M,-26.9,M,,*
44
$GPGSA,A,3,18,24,23,15,10,32,29,5,,,,1.46,0.86,1.18*
06
$GPGSV,4,1,14,05,06,096,18,10,323,29,13,00,045,,15,30,043,29*
7E
$GPGSV,4,2,14,18,78,162,32,22,08,,23,52,348,25,24,56,091,23*
76
$GPGSV,4,3,14,27,13,300,30,29,1016,32,28,247,28,46,30,247,*
7F
$GPGSV,4,4,14,48,34,244,,51,49,231*79

$GPGLL,2712.38176,N,08227.11045,W,225043.00,A,A*
$GPRMC,225044.00,A,2712.38180,N,08227.11049,W,0.028,,130722,,,A*
6E
$GPVTG,,T,,M,0.028,N,0.052,K,A*2$GPGGA,225044.00,271
2.38180,N,08227.11049,W,1,09,0.86,0.M,-26.9,M,,*6A

$GPGSA,A,3,18,24,23,15,10,32,29,27,05,,86,1.18*06

$GPGSV,4,1,14,05,06,096,18,10,32,313,29,045,,15,30,043,29*7
E
$GPGSV,4,2,14,18,78,162,31,22,08,,,23,52,348,24,24,56,091,23*
74
$GPGSV,4,3,14,27,13,300,30,29,10,187,16,32,28,247,28,46,30,247,*
7F
$GPGSV,4,4,14,48,34,244,,51,49,2,31*79

$GPGLL,2712.38180,N,08227.11049,W,225044.00,A,A*
$GPRMC,225045.00,A,2712.38181,N,08227.11052,W,0.179,,130722,,,A*
61
$GPVTG,,T,,M,0.179,N,0.332,K,A*2GPGGA,225045.00,2712.
38181,N,08227.11052,W,1,09,0.86,0.1,9,M,,*61

$GPGSA,A,3,18,24,23,15,10,32,29,27,05,,,,1.46,0.86
$GPGSV,4,1,14,05,06,096,17,10,32,313,29,13,00,045,,15,3*71

$GPGSV,4,2,14,18,78,162,31,22,08,235,,23,52,348,25,091,22*74

$GPGSV,4,3,14,27,13,300,30,29,10,187,16,32,2828,46,30,247,*7F

$GPGSV,4,4,14,48,34,244,,51,49,227*79

$GPGLL,2712.38181,N,08227.11052,45.00,A,A*72

$GPRMC,225046.00,A,2712.38183,N,08227.11054,W,0.089,,130722,,,A*
68
$GPVTG,,T,,M,0.089,N,0.165,K,A*2PGG
A,225046.00,2712.38183,N,08227.11054,1,09,0.86,0.2,M,-26.9,M,,*
65
$GPGSA,A,3,18,24,23,15,10,32,29,7,05,,,,1.46,0.86,1.18*
06
$GPGSV,4,1,14,05,06,096,17,10,32,313,29,13,00,045,,15,30,043,29*
71
$GPGSV,4,2,14,18,78,162,31,22,08,23,52,348,24,24,56,091,22*75

$GPGSV,4,3,14,300,30,29,10,187,17,32,28,247,28,46,30,247,*7E

$GPGSV,4,244,,51,49,227,31*79

$GPGLL,2712.3818,N,08227.11054,W,225046.00,A,A*75

$GPRMC,225047.00,A,2712.38186,N,08227.11057,W,0.110,,130722,,,A*
6E
$GPVTG,,T,,M,0.110,N,0.204,K,A*2

$GPGGA,225047.00,2712.38186,N,08227.1101,09,0.86,0.3,M,-26.9,M,,*
63
$GPGSA,A,3,18,24,23,15,10,32,29,,0.86,1.18*
06
$GPGSV,4,1,14,05,06,096,18,10,32,29,13,00,045,,15,30,043,29*
7E
$GPGSV,4,2,14,18,78,162,31,22,08,,23,52,348,23,24,56,091,21*
71
$GPGSV,4,3,14,27,13,300,30,29,10,16,32,28,247,28,46,30,247,*
7F
$GPGSV,4,4,14,48,34,244,,51,49,2
$GPGLL,2712.38186,N,08227.11057,W,225047.00,A,$GPRMC,225048.00,A,2712.38188,N,08227.11058,W,0.020,,130722,,,A*
62
$GPVTG,,T,,M,0.020,N,0.037,K,A*25

$048.00,2712.38188,N,08227.11058,W,1,09,0.86,06.9,M,,*
6D
$GPGSA,A,3,18,24,23,15,10,32,29,,1.46,0.86,1.18*
06
$GPGSV,4,1,14,05,06,096,19,10,32,313,29,13,00,045,,15,30,043,29*
7F
$GPGSV,4,2,14,18,78,162,31,22,0823,52,348,23,24,56,091,20*
70
$GPGSV,4,3,14,27,13,300,30,29,106,32,28,247,28,46,30,247,*
7F
$GPGSV,4,4,14,48,34,244,,51,49,231*79

$GPGLL,2712.38188,N,08227.11058,W,2250A*7C

$GPRMC,225049.00,A,2712.38188,N,08227.11059,W,0.056,,130722,,,A*
63
$GPVTG,,T,,M,0.056,N,0.103,K,A*2

$GPGGA,225049.00,2712.38188,N,08227.11059,W3,M,-26.9,M,,*6D

$GPGSA,A,3,18,24,23,15,10,32,29,,,1.46,0.86,1.18*06

$GPGSV,4,1,14,05,06,096,19,10,32,33,29,13,00,045,,15,30,043,29*7F

$GPGSV,4,2,1162,32,22,08,235,,23,52,348,23,24,56,091,20*7V,4,3,14,27
,13,300,30,29,10,187,15,32,28,247,280,247,*7C

$GPGSV,4,4,14,48,34,244,,51,49,226,3LL,2712.38188,N,08227.11059,W,225049.00,A,A*
7C
$GPRMC,225050.00,A,2712.38199,N,08227.11065,W,0.189,,130722,,,A*
67
$GPVTG,,T,,M,0.189,N,0.351,K,A*2GPGGA,225050.00
,2712.38199,N,08227.11065,W,1,09,0.87,M,-26.9,M,,*
6E
$GPGSA,A,3,18,24,23,15,10,32,29,18*06

$GPGSV,4,1,14,05,06,096,19,10,32,313,29,13,,30,043,29*7F

$GPGSV,4,2,14,18,78,162,32,22,08,22,348,23,24,56,091,21*72

$GPGSV,4,3,14,27,13,300,30187,15,32,28,247,28,46,30,247,*7C

$GPGSV,4,4,14,48,34,2,,51,49,226,31*78

$GPGLL,2712.38199,N,08227.11065050.00,A,A*7B

$GPRMC,225051.00,A,2712.38204,N,08227.11066,W,0.074,,130722,,,A*
61
$GPVTG,,T,,M,0.074,N,0.138,K,A*2GGA,225051.00,27
12.38204,N,08227.11066,W,1,09,0.86,0,M,-26.9,M,,*6B

$GPGSA,A,3,18,24,23,15,10,32,29,27,6,0.86,1.18*06

$GPGSV,4,1,14,05,06,096,19,10,32,3139,13,00,045,,15,30,043,29*
7F
$GPGSV,4,2,14,18,78,162,32,22,08,235,,23,52,348,23,24,56,091,20*
73
$GPGSV,4,3,14,27,13,300,30,29,1087,14,32,28,247,28,46,30,247,*
7D
$GPGSV,4,4,14,48,34,244,,51,49,2,31*78

$GPGLL,2712.38204,N,08227.11066,W,225051.00,A,A*7E
$GPRMC,225052.00,A,2712.38215,N,08227.11070,W,0.072,,130722,,,A*
63
$GPVTG,,T,,M,0.072,N,0.134,K,A*2GPGGA,225052.00,271
2.38215,N,08227.11070,W,1,09,0.86,1.M,-26.9,M,,*69

$GPGSA,A,3,18,24,23,15,10,32,29,27,05,,,.46,0.86,1.18*06

$GPGSV,4,1,14,05,06,096,19,10,32,3133,00,045,,15,30,043,29*
7F
$GPGSV,4,2,14,18,78,162,32,22,08,23,52,348,23,24,56,091,20*
73
$GPGSV,4,3,14,27,13,300,30,29,1087,15,32,28,247,27,46,30,247,*
73
$GPGSV,4,4,14,48,34,244,,51,49,226,31*78

$GPGLL,2712.38215,N,08227.11070,W,225052.00,A,
$GPRMC,225053.00,A,2712.38217,N,08227.11072,W,0.051,,130722,,,A*
63
$GPVTG,,T,,M,0.051,N,0.094,K,A*2PGGA,225053.00,2712.38217,N,08227.11072,W,1,09,0.86,1.0,M,-26,*68

$GPGSA,A,3,18,24,23,15,10,32,29,27,05,,,,1.46,0.86.18*06

$GPGSV,4,1,14,05,05,096,20,10,32,313,29,13,00,05,30,043,29*76

$GPGSV,4,2,14,18,78,162,32,22,08,235,,248,22,24,56,091,20*72

$GPGSV,4,3,14,27,13,300,30,29,10,18,32,28,247,27,46,30,247,*
73
$GPGSV,4,4,14,48,34,244,,51,49,26,31*78

$GPGLL,2712.38217,N,08227.11072,W,225053.7B
$GPRMC,225054.00,A,2712.38219,N,08227.11074,W,0.088,,130722,,,A*
68
$GPVTG,,T,,M,0.088,N,0.163,K,A*2GPG
GA,225054.00,2712.38219,N,0