9]555)AM5)AMY5)AMY5)AMY5)AMY5)A119]5)$GPRMC,230357.00,A,2712.37788,N,08227.10977,W,0.344,,130722,,,A*
66
$GPVTG,,T,,M,0.344,N,0.636,K,A*23

$GPGGA,23357.00,2712.37788,N,08227.10977,W,1,07,1.43,-1.3,M,-26.9,M,,*
42
$GPGSA,A,3,18,24,23,15,10,32,27,,,,,,2.61,1.43,2.18*
05
$GPGSV,4,1,15,05,03,101,,10,35,318,32,12,00,127,,15,26,046,19*
7F
$GPGSV,4,2,15,18,71,165,22,22,12,239,05,23,55,358,22,24,55,079,25*
78
$GPGSV,4,3,15,25,00,162,,27,13,294,20,29,06,184,,32,32,252,25*
70
$GPGSV,4,4,15,46,30,247,,48,34,244,,51,49,22
$GPGLL,2712.37788,N,08227.10977,W,230357.00,A,A*
79
$GPRMC,230358.00,A,2712.37780,N,08227.10981,W,0.280,,130722,,,A*
61
$GPVTG,,T,,M,0.280,N,0.519,K,A*2$GPGGA
,230358.00,2712.37780,N,08227.10981,3,-1.3,M,-26.9,M,,*
4C
$GPGSA,A,3,18,24,23,15,10,32,27,,,,2.61,1.43,2.18*
05
$GPGSV,4,1,15,05,03,101,,10,35,30,12,00,127,,15,26,046,18*
7C
$GPGSV,4,2,15,18,71,165,21,22,1208,23,55,358,21,24,55,079,22*
72
$GPGSV,4,3,15,25,00,162,,27,13,2,20,29,06,184,,32,32,252,25*
70
$GPGSV,4,4,15,46,30,247,,48,34,2,,51,49,227,*
4A
$GPGLL,2712.37780,N,08227.10981,8.00,A,A*77

$GPRMC,230359.00,A,2712.37810,N,08227.10983,W,0.325,,130722,,,A*
6A
$GPVTG,,T,,M,0.325,N,0.603,K,A*2GA,230359
.00,2712.37810,N,08227.10983,W,1,07,3,-1.3,M,-26.9,M,,*
49
$GPGSA,A,3,18,24,23,15,10,32,27,,,,2.61,1.43,2.18*
05
$GPGSV,4,1,15,05,03,101,,10,35,31,12,00,127,,15,26,046,20*
76
$GPGSV,4,2,15,18,71,165,22,22,123,23,55,358,21,24,55,079,23*
7A
$GPGSV,4,3,15,25,00,162,,27,13,24,21,29,06,184,,32,32,252,27*
73
$GPGSV,4,4,15,46,30,247,,48,34,2,,51,49,227,*
4A
$GPGLL,2712.37810,N,08227.10983,0359.00,A,A*
72
$GPRMC,230400.00,A,2712.37821,N,08227.10981,W,0.166,,130722,,,A*
64
$GPVTG,,T,,M,0.166,N,0.308,K,A*2A,230400.00,2712.37821,N,08227.10981,W,1,07,1.43,26.9,M,,*43

$GPGSA,A,3,18,24,23,15,10,32,27,,,,,,2.61,1.18*05

$GPGSV,4,1,15,05,03,101,,10,35,318,3127,,15,26,046,22*
75
$GPGSV,4,2,15,18,71,165,22,22,12239,17,23,55,358,21,24,55,079,22*
7F
$GPGSV,4,3,15,25,00,162,,27,13,24,21,29,06,184,,32,32,252,27*
73
$GPGSV,4,4,15,46,30,247,,48,34,21,49,227,*4A

$GPGLL,2712.37821,N,08227.10981,W,30400.00,A,A*7
9
$GPRMC,230401.00,A,2712.37846,N,08227.10953,W,0.362,,130722,,,A*
6D
$GPVTG,,T,,M,0.362,N,0.671,K,A*2$GPGGA,230401
.00,2712.37846,N,08227.10953,W,1,08,,-26.9,M,,*47

$GPGSA,A,3,18,24,23,15,10,32,27,222.11,1.19,1.74*
04
$GPGSV,4,1,15,05,03,101,,10,35,318,315,26,046,22*74

$GPGSV,4,2,15,18,71,165,22,22,12,239,55,358,21,24,55,079,22*70

$GPGSV,4,3,15,25,00,162,,27,194,22,29,06,184,,32,32,252,27*70

$GPGSV,4,4,15,467,,48,34,244,,51,49,227,*4A

$GPGLL,2712.37846,N10953,W,230401.00,A,A*76

$GPRMC,230402.00,A,2712.37869,N,08227.10948,W,0.173,,130722,,,A*
6B
$GPVTG,,T,,M,0.173,N,0.320,K,A*2GGA,230402.00,27
12.37869,N,08227.10948,W,1,08,1.19,-,-26.9,M,,*4D

$GPGSA,A,3,18,24,23,15,10,32,27,22,,,.19,1.74*04

$GPGSV,4,1,15,05,03,101,,10,35,318,322,00,127,,15,26,046,21*
74
$GPGSV,4,2,15,18,71,165,22,22,129,18,23,55,358,20,24,55,079,22*
71
$GPGSV,4,3,15,25,00,162,,27,13,229,06,184,,32,32,252,27*70

$GPGSV,4,4,15,46,30,247,,48,,51,49,227,*4A

$GPGLL,2712.37869,N,08227.10948,W,230402,A,A*72

$GPRMC,230403.00,A,2712.37888,N,08227.10924,W,0.290,,130722,,,A*
61
$GPVTG,,T,,M,0.290,N,0.537,K,A*2

$GPGGA,230403.00,2712.37888,N,08227.10924,W,1,08,1.19,,M,-26.9,M,,*4C

$GPGSA,A,3,18,24,23,15,10,32,27,22,,,,.11,1.19,1.74*04

$GPGSV,4,1,15,05,03,101,,10,35,318,312,00,127,,15,26,046,21*
77
$GPGSV,4,2,15,18,71,165,21,22,12,19,23,55,358,20,24,55,079,22*
73
$GPGSV,4,3,15,25,00,162,,27,13,29,06,184,,32,32,252,27*
73
$GPGSV,4,4,15,46,30,247,,48,34,251,49,227,*4A

$GPGLL,2712.37888,N,08227.10924,W,230403,A,A*76

$GPRMC,230404.00,A,2712.37921,N,08227.10913,W,0.235,,130722,,,A*
6F
$GPVTG,,T,,M,0.235,N,0.435,K,A*2

$GPGGA,230404.00,2712.37921,N,08227.10913,W,1,08,1.19,0-26.9,M,,*62

$GPGSA,A,3,18,24,23,15,10,32,27,22,,,,,2.19,1.74*04

$GPGSV,4,1,15,05,03,101,,10,35,318,31,12,00,1276,046,21*77

$GPGSV,4,2,15,18,71,165,20,22,12,239,19,23,358,19,24,55,079,21*7
B
$GPGSV,4,3,15,25,00,162,,27,13,2920,29,06,184,,32,32,252,27*
72
$GPGSV,4,4,15,46,30,247,,48,34,249,227,*4A

$GPGLL,2712.37921,N,08227.10913,W,230404.00,A
$GPRMC,230405.00,A,2712.37953,N,08227.10924,W,0.313,,130722,,,A*
6A
$GPVTG,,T,,M,0.313,N,0.579,K,A*2GPGG
A,230405.00,2712.37953,N,08227.10924,1,08,1.19,-0.2,M,-26.9,M,,*4C

$GPGSA,A,3,13,15,10,32,27,22,,,,,2.11,1.19,1.74*04

$GPGSV,4,1,15,05,,10,35,318,31,12,00,127,,15,26,046,20*7GPGS
V,4,2,15,18,71,165,21,22,12,239,19,2,358,18,24,55,079,21*
7B
$GPGSV,4,3,15,25,00,162,,27,13,24,21,29,06,184,,32,32,252,27*
73
$GPGSV,4,4,15,46,30,247,,48,34,251,49,227,*
4A
$GPGLL,2712.37953,N,08227.10924,230405.00,A,A*
77
$GPRMC,230406.00,A,2712.37977,N,08227.10924,W,0.179,,130722,,,A*
61
$GPVTG,,T,,M,0.179,N,0.331,K,A*2$GPGG
A,230406.00,2712.37977,N,08227.1092419,-0.4,M,-26.9,M,,*
4F
$GPGSA,A,3,18,24,23,15,10,32,27,,,2.11,1.19,1.74*
04
$GPGSV,4,1,15,05,02,101,16,10,3518,31,12,00,127,,15,26,046,20*70

$GPGSV,4,218,71,165,21,22,12,239,19,23,55,358,18,24,55,079,21*7B

SV,4,3,15,25,00,162,,27,13,294,21,29,06,,32,32,252,27*
73
$GPGSV,4,4,15,46,30,247,,48,34,2,,51,49,227,*
4A
$GPGLL,2712.37977,N,08227.10924,230406.00,A,A*
72
$GPRMC,230407.00,A,2712.37987,N,08227.10896,W,0.065,,130722,,,A*
6B
$GPVTG,,T,,M,0.065,N,0.120,K,A*2PGGA,2304
07.00,2712.37987,N,08227.10896,W,1,01.19,-0.3,M,-26.9,M,,*
4E
$GPGSA,A,3,18,24,23,15,10,32,27,,,,,,2.11,1.19,1.74*
04
$GPGSV,4,1,15,05,02,101,13,10,35,12,00,127,,15,26,046,20*
75
$GPGSV,4,2,15,18,71,165,21,22,12,19,23,55,358,20,24,55,079,22*
73
$GPGSV,4,3,15,25,00,162,,27,13,222,29,06,184,,32,32,252,27*70

$GPGSV,4,4,15,46,,,48,34,244,,51,49,227,*4A

$GPGLL,2712.37987,N,08227.10,230407.00,A,A*74

$GPRMC,230408.00,A,2712.37998,N,08227.10876,W,0.084,,130722,,,A*
6B
$GPVTG,,T,,M,0.084,N,0.156,K,A*2PGGA,230408
.00,2712.37998,N,08227.10876,W,1,08,0.3,M,-26.9,M,,*
41
$GPGSA,A,3,18,24,23,15,10,32,27,2,,,,,2.11,1.19,1.74*
04
$GPGSV,4,1,15,05,02,101,13,10,35318,30,12,00,127,,15,26,046,22*
76
$GPGSV,4,2,15,18,71,165,20,22,12239,18,23,55,358,20,24,55,079,21*
70
$GPGSV,4,3,15,25,00,162,,27,13,229,06,184,,32,32,252,26*
71
$GPGSV,4,4,15,46,30,247,,48,34,21,49,227,*4A

$GPGLL,2712.37998,N,08227.10876,W,23,A,A*7B

$GPRMC,230409.00,A,2712.38017,N,08227.10897,W,0.215,,130722,,,A*
6E
$GPVTG,,T,,M,0.215,N,0.398,K,A*2GPGGA,230409.0
0,2712.38017,N,08227.10897,W,1,08,1.19,-,M,-26.9,M,,*4
E
$GPGSA,A,3,18,24,23,15,10,32,27,2,,,2.11,1.19,1.74*
04
$GPGSV,4,1,15,05,02,101,13,10,35,32,12,00,127,,15,26,046,24*
72
$GPGSV,4,2,15,18,71,165,21,22,125,358,22,24,55,079,22*
71
$GPGSV,4,3,15,25,00,162,,27,13,2,29,06,184,,32,32,252,26*
70
$GPGSV,4,4,15,46,30,247,,48,34,251,49,227,*4A

$GPGLL,2712.38017,N,08227.10897,W,239.00,A,A*74

$GPRMC,230410.00,A,2712.38034,N,08227.10908,W,0.071,,130722,,,A*
60
$GPVTG,,T,,M,0.071,N,0.132,K,A*2GA,230410.00,2712.38034,N,08227.10908,W,1,08,1.19,-0.1M,,*42

$GPGSA,A,3,18,24,23,15,10,32,27,22,,,,,2.11,1.19
$GPGSV,4,1,15,05,02,101,13,10,36,319,31,12,00,127,,15,26,046,22*
75
$GPGSV,4,2,15,18,71,165,21,22,128,23,55,358,21,24,55,079,20*
71
$GPGSV,4,3,15,25,00,162,,27,13,24,22,29,06,184,,32,32,252,27*
70
$GPGSV,4,4,15,46,30,247,,48,34,21,49,227,*4A

$GPGLL,2712.38034,N,08227.10908,W,230410.A,A*7A

$GPRMC,230411.00,A,2712.38039,N,08227.10889,W,0.249,,130722,,,A*
6D
$GPVTG,,T,,M,0.249,N,0.460,K,A*2

$GPGGA,230411.00,2712.38039,N,08227.10889,W,1,08,1.19-26.9,M,,*6B

$GPGSA,A,3,18,24,23,15,10,32,27,22,,,,,2.11.19,1.74*04

$GPGSV,4,1,15,05,02,101,13,10,36,319,32,1127,,15,26,046,21*7
5
$GPGSV,4,2,15,18,71,165,22,22,12,,23,55,358,20,24,55,079,21*7D

$GPGSV,4,3,15,25,00,162,,27,194,22,29,06,184,,32,32,252,26*71

$GPGSV,4,4,15,46,30,24,34,244,,51,49,227,*4A

$GPGLL,2712.38039,N,08227.10889A,A*7E

$GPRMC,230412.00,A,2712.38047,N,08227.10876,W,0.207,,130722,,,A*
6D
$GPVTG,,T,,M,0.207,N,0.383,K,A*2$GPGGA,230412.00,2712
.38047,N,08227.10876,W,1,08,1.19,0.46.9,M,,*64

$GPGSA,A,3,18,24,23,15,10,32,27,22,,,,,2.11,*04

$GPGSV,4,1,15,05,02,101,13,10,36,319,30,12,00,126,,,046,20*77

$GPGSV,4,2,15,18,71,165,21,22,12,239,16,23,5,358,18,24,55,079,21*
74
$GPGSV,4,3,15,25,00,162,,27,13,24,22,29,06,184,,32,32,252,26*
71
$GPGSV,4,4,15,46,30,247,,48,34,251,49,227,*4A

$GPGLL,2712.38047,N,08227.10876,W,230$GPRMC,230413.00,A,2712.38058,N,08227.10869,W,0.147,,130722,,,A*
6B
$GPVTG,,T,,M,0.147,N,0.272,K,A*2GGA
,230413.00,2712.38058,N,08227.10869,W,1,08,1.19,0.4,M,-26.9,M,,*
65
$GPGSA,A,3,18,24,23,15,10,32,27,,,,,2.11,1.19,1.74*
04
$GPGSV,4,1,15,05,02,101,13,10,36,30,12,00,126,,15,26,046,19*
7D
$GPGSV,4,2,15,18,71,165,21,22,12239,15,23,55,358,17,24,55,079,20*
79
$GPGSV,4,3,15,25,00,162,,27,13,229,06,184,,32,32,252,27*
70
$GPGSV,4,4,15,46,30,247,,48,34,24,,51,49,227,*
4A
$GPGLL,2712.38058,N,08227.10869,3.00,A,A*
75
$GPRMC,230414.00,A,2712.38064,N,08227.10850,W,0.327,,130722,,,A*
6D
$GPVTG,,T,,M,0.327,N,0.605,K,A*2GPGGA,230414.00,2712.38064,N,08227.10850,W,11.19,0.3,M,-26.9,M,,*6
0
$GPGSA,A,3,18,24,23,15,10,32,27,2,,,,2.11,1.19,1.74*
04
$GPGSV,4,1,15,05,02,101,08,10,36319,30,12,00,126,,15,26,046,18*
76
$GPGSV,4,2,15,18,71,165,21,22,129,14,23,55,358,17,24,55,079,20*
78
$GPGSV,4,3,15,25,00,162,,27,13,24,22,29,06,184,,32,32,252,27*
70
$GPGSV,4,4,15,46,30,247,,48,34,2,,51,49,227,*
4A
$GPGLL,2712.38064,N,08227.10850,30414.00,A,A*
77
$GPRMC,230415.00,A,2712.38069,N,08227.10833,W,0.448,,130722,,,A*
6A
$GPVTG,,T,,M,0.448,N,0.830,K,A*2$GPGGA,23
0415.00,2712.38069,N,08227.10833,W,1,1.19,0.4,M,-26.9,M,,*
6E
$GPGSA,A,3,18,24,23,15,10,32,27,.11,1.19,1.74*
04
$GPGSV,4,1,15,05,02,101,08,10,3619,30,12,00,126,,15,26,046,19*77

$GPGSV,4,2,15,1165,21,22,12,239,14,23,55,358,17,24,55,079,20*78

$GPGSV4,3,15,25,00,162,,27,13,294,22,29,06,184,,32,252,27*7
0
$GPGSV,4,4,15,46,30,247,,48,34,2449,227,*4A

$GPGLL,2712.38069,N,08227.10833,W,.00,A,A*7E

$GPRMC,230416.00,A,2712.38068,N,08227.10805,W,0.428,,130722,,,A*
6B
$GPVTG,,T,,M,0.428,N,0.792,K,A*21

$GPGGA,230416.00,2712.38068,N,08227.10805,1.19,0.4,M,-26.9,M,,*
69
$GPGSA,A,3,18,24,23,15,10,32,27,,,,2.11,1.19,1.74*
04
$GPGSV,4,1,15,05,02,101,,10,36,319,29,12,00,126,,15,26,046,18*
76
$GPGSV,4,2,15,18,71,165,20,22,12,14,23,55,358,16,24,55,079,19*
72
$GPGSV,4,3,15,25,00,162,,27,13,2,22,29,06,184,,32,32,252,27*70

$GPGSV,4,4,15,46,3,48,34,244,,51,49,227,*4A

$GPGLL,2712.38068,N,08227.1080416.00,A,A*79

$GPRMC,230417.00,A,2712.38063,N,08227.10771,W,0.364,,130722,,,A*
62
$GPVTG,,T,,M,0.364,N,0.675,K,A*2GPGGA,230417.
00,2712.38063,N,08227.10771,W,1,08,1.1,M,-26.9,M,,*
6A
$GPGSA,A,3,18,24,23,15,10,32,27,2,,,,,2.11,1.19,1.74*
04
$GPGSV,4,1,15,05,02,101,,10,36,30,12,00,126,,15,26,046,18*
7E
$GPGSV,4,2,15,18,71,165,20,22,1239,14,23,55,358,16,24,55,079,20*
78
$GPGSV,4,3,15,25,00,162,,27,13,221,29,06,184,,32,32,252,28*
7C
$GPGSV,4,4,15,46,30,247,,48,34,2,49,227,*4A

$GPGLL,2712.38063,N,08227.10771,W,2300,A,A*7F

$GPRMC,230418.00,A,2712.38070,N,08227.10764,W,0.419,,130722,,,A*
66
$GPVTG,,T,,M,0.419,N,0.775,K,A*2GPGGA,230418.00,
2712.38070,N,08227.10764,W,1,07,1.43,-0.2,M,-26.9,M,,*
4D
$GPGSA,A,3,18,24,23,15,10,32,27,,,,,2.60,1.43,2.17*
0B
$GPGSV,4,1,15,05,02,101,,10,36,39,30,12,00,126,,15,26,046,19*
7F
$GPGSV,4,2,15,18,70,166,21,22,12,,23,55,358,17,24,55,079,20*
7F
$GPGSV,4,3,15,25,00,162,,27,13,2,22,29,06,184,,32,32,252,28*
7F
$GPGSV,4,4,15,46,30,247,,48,34,251,49,227,*4A

$GPGLL,2712.38070,N,08227.10764,W,230418.A*76

$GPRMC,230419.00,A,2712.38076,N,08227.10753,W,0.473,,130722,,,A*
69
$GPVTG,,T,,M,0.473,N,0.876,K,A*2A

$GPGGA,230419.00,2712.38076,N,08227.10753,W,1,07,1.43,-,-26.9,M,,*48

$GPGSA,A,3,18,24,23,15,10,32,27,,,,,,2.60.17*0B

$GPGSV,4,1,15,05,02,101,,10,36,319,31,12,00,1265,26,046,19*7E

$GPGSV,4,2,15,18,70,166,22,22,12,239,358,17,24,55,079,20*7A

$GPGSV,4,3,15,25,00,162,,27,1323,29,06,184,,32,32,252,28*7E

$GPGSV,4,4,15,46,30,247,4,244,,51,49,227,*4A

$GPGLL,2712.38076,N,08227.10753,W0419.00,A,A*75

$GPRMC,230420.00,A,2712.38088,N,08227.10770,W,0.146,,130722,,,A*
60
$GPVTG,,T,,M,0.146,N,0.270,K,A*2PGGA,230420.00,2712.3
8088,N,08227.10770,W,1,07,1.43,-0.9,.9,M,,*4F

$GPGSA,A,3,18,24,23,15,10,32,27,,,,,,2.60,1.417*0B

$GPGSV,4,1,15,05,02,101,,10,36,319,31,12,00,126,,15,29*7E

$GPGSV,4,2,15,18,70,166,22,22,12,239,20,23,55,358,1,24,55,079,21*7F

$GPGSV,4,3,15,25,00,162,,27,13,294,23,9,06,184,,32,32,252,28*7E

$GPGSV,4,4,15,46,30,247,,48,3,51,49,227,*4A

$GPGLL,2712.38088,N,08227.10770,W,2300,A,A*7F

$GPRMC,230421.00,A,2712.38080,N,08227.10717,W,0.491,,130722,,,A*
67
$GPVTG,,T,,M,0.491,N,0.910,K,A*2GA,2
30421.00,2712.38080,N,08227.10717,W,,1.43,-1.2,M,-26.9,M,,*
4D
$GPGSA,A,3,18,24,23,15,10,32,27,2.60,1.43,2.17*
0B
$GPGSV,4,1,15,05,02,101,,10,36,32,00,126,,15,26,046,19*
7F
$GPGSV,4,2,15,18,70,166,21,22,12,17,23,55,358,17,24,55,079,20*79

$GPGSV,4,3,25,00,162,,27,13,294,22,29,06,184,,32,32,252,27*70

$GP,4,4,15,46,30,247,,48,34,244,,51,49,227,
$GPGLL,2712.38080,N,08227.10717,W,230421.00,A,A*
77
$GPRMC,230422.00,A,2712.38085,N,08227.10709,W,0.472,,130722,,,A*
63
$GPVTG,,T,,M,0.472,N,0.874,K,A*2

$GPGGA,230422.00,2712.38085,N,08227.101,07,1.43,-1.5,M,-26.9,M,,*
43
$GPGSA,A,3,18,24,23,15,10,32,27,2.60,1.43,2.17*
0B
$GPGSV,4,1,15,05,02,101,,10,36,330,12,00,126,,15,26,046,19*
7F
$GPGSV,4,2,15,18,70,166,22,22,13240,15,23,55,358,17,24,55,079,20*
77
$GPGSV,4,3,15,25,00,162,,27,13,294,23,29,06,184,,32,32,252,28*
7E
$GPGSV,4,4,15,46,30,247,,48,34,251,49,227,*
4A
$GPGLL,2712.38085,N,08227.10709,,230422.00,A,A*7E

$GPRMC,230423.00,A,2712.38081,N,08227.10689,W,0.755,,130722,,,A*
69
$GPVTG,,T,,M,0.755,N,1.399,K,A*2$GPGGA,230
423.00,2712.38081,N,08227.10689,W,1,1.43,-1.7,M,-26.9,M,,*
4D
$GPGSA,A,3,18,24,23,15,10,32,27,,2.60,1.43,2.17*
0B
$GPGSV,4,1,15,05,02,101,,10,36,39,31,12,00,126,,15,26,046,18*
7F
$GPGSV,4,2,15,18,70,166,22,22,13240,15,23,55,358,18,24,55,079,19*
72
$GPGSV,4,3,15,25,00,162,,27,13,2,23,29,06,184,,32,32,252,28*
7E
$GPGSV,4,4,15,46,30,247,,48,34,251,49,227,*
4A
$GPGLL,2712.38081,N,08227.10689,W,23A,A*72

$GPRMC,230424.00,A,2712.38103,N,08227.10688,W,0.550,,130722,,,A*
63
$GPVTG,,T,,M,0.550,N,1.019,K,A*2GA,230424.00,2712.38103,N,08227.10688,W,1,08,1.19,-1.,M,-26.9,M,,*46

$GPGSA,A,3,18,24,23,15,10,32,27,22,,,,,,1.74*04

$GPGSV,4,1,15,05,02,101,,10,36,319,30,00,126,,15,26,046,20*
75
$GPGSV,4,2,15,18,70,166,23,22,13,23,55,358,17,24,55,079,20*
76
$GPGSV,4,3,15,25,00,162,,27,13,2,24,29,06,184,,32,32,252,28*
79
$GPGSV,4,4,15,46,30,247,,48,34,2,49,227,*4A

$GPGLL,2712.38103,N,08227.10688,W,2304.00,A,A*7F

$GPRMC,230425.00,A,2712.38121,N,08227.10705,W,0.331,,130722,,,A*
67
$GPVTG,,T,,M,0.331,N,0.614,K,A*2,230425.00,271
2.38121,N,08227.10705,W,1,07,1.30,-0.5,M,M,,*42

$GPGSA,A,3,18,24,15,10,32,27,22,,,,,,2.37,1.98*08

$GPGSV,4,1,15,05,02,101,,10,36,319,30,1226,,15,26,046,20*75

$GPGSV,4,2,15,18,70,166,23,22,13,5,23,55,358,,24,55,079,20*70

$GPGSV,4,3,15,25,00,162,,24,23,29,06,184,,32,32,252,28*7E

$GPGSV,4,4,15,46,8,34,244,,51,49,227,*4A

$GPGLL,2712.38121,N,08227705,W,230425.00,A,A*7A

$GPRMC,230426.00,A,2712.38148,N,08227.10710,W,0.101,,130722,,,A*
6E
$GPVTG,,T,,M,0.101,N,0.188,K,A*2

$GPGGA,230426.00,2712.38148,N,08227.10710,W,1,07,0,M,-26.9,M,,*62

$GPGSA,A,3,18,24,15,10,32,27,22,,,7,1.30,1.98*08

$GPGSV,4,1,15,05,02,101,,10,36,319,300,126,,15,26,046,19*
7F
$GPGSV,4,2,15,18,70,166,22,22,13,240,15,23,55,358,17,24,55,079,21*
76
$GPGSV,4,3,15,25,00,162,,27,13,23,29,06,184,,32,32,252,28*7E

$GPGSV,4,4,15,46,30,247,,48,344,,51,49,227,*4A

$GPGLL,2712.38148,N,08227.10710,W,2300,A,A*72

$GPRMC,230427.00,A,2712.38162,N,08227.10726,W,0.209,,130722,,,A*
69
$GPVTG,,T,,M,0.209,N,0.387,K,A*2

$GPGGA,230427.00,2712.38162,N,08227.10726,W,1,07,1.30M,-26.9,M,,*6E

$GPGSA,A,3,18,24,15,10,32,27,22,,,,,,2.30,1.98*08

$GPGSV,4,1,15,05,02,101,12,10,36,319,30,00,126,,15,26,046,19*
7C
$GPGSV,4,2,15,18,70,166,21,22,13,15,23,55,358,16,24,55,079,20*
75
$GPGSV,4,3,15,25,00,162,,27,13,294,22,29,06,184,,32,32,252,27*
70
$GPGSV,4,4,15,46,30,247,,48,34,2,51,49,227,*4A

$GPGLL,2712.38162,N,08227.10726,W,230427,A*7E

$GPRMC,230428.00,A,2712.38179,N,08227.10749,W,0.166,,130722,,,A*
6F
$GPVTG,,T,,M,0.166,N,0.308,K,A*2$GPGGA,230428.00,2712
.38179,N,08227.10749,W,1,07,1.30,0.7.9,M,,*65

$GPGSA,A,3,18,24,15,10,32,27,22,,,,,,2.37,1.3.98*08

$GPGSV,4,1,15,05,02,101,11,10,36,319,30,12,00,126,046,19*7F

$GPGSV,4,2,15,18,70,166,22,22,13,240,16,23,16,24,55,079,19*7F

$GPGSV,4,3,15,25,00,162,,27,13,294,29,06,184,,32,32,252,28*7F

$GPGSV,4,4,15,46,30,247,,,34,244,,51,49,227,*4A

$GPGLL,2712.38178227.10749,W,230428.00,A,A*72

$GPRMC,230429.00,A,2712.38188,N,08227.10746,W,0.306,,130722,,,A*
6B
$GPVTG,,T,,M,0.306,N,0.567,K,A*2GGA,230429.00,2712.38188,N,08227.10746,W,1,01.30,0.9,M,-26.9,M,,*6
B
$GPGSA,A,3,18,24,15,10,32,27,22,,.37,1.30,1.98*
08
$GPGSV,4,1,15,05,02,101,10,10,36319,30,12,00,126,,15,26,046,18*
7F
$GPGSV,4,2,15,18,70,166,22,22,1316,23,55,358,12,24,55,079,18*
7A
$GPGSV,4,3,15,25,00,162,,27,13,22,29,06,184,,32,32,252,27*
70
$GPGSV,4,4,15,46,30,247,,48,34,21,49,227,*
4A
$GPGLL,2712.38188,N,08227.10746,0429.00,A,A*
72
$GPRMC,230430.00,A,2712.38199,N,08227.10738,W,0.094,,130722,,,A*
62
$GPVTG,,T,,M,0.094,N,0.174,K,A*2PGGA,2
30430.00,2712.38199,N,08227.10738,W,0,1.3,M,-26.9,M,,*
61
$GPGSA,A,3,18,24,15,10,32,27,22,2.37,1.30,1.98*
08
$GPGSV,4,1,15,05,02,101,09,10,3619,29,12,00,126,,15,26,046,18*7F

$GPGSV,4,270,166,23,22,13,240,17,23,55,358,09,24,55,079,18*70

$GP3,15,25,00,162,,27,13,294,22,29,06,184,,32,27*70

$GPGSV,4,4,15,46,30,247,,48,34,244,27,*4A

$GPGLL,2712.38199,N,08227.10738,W,23.00,A,A*7
3
$GPRMC,230431.00,A,2712.38229,N,08227.10775,W,0.280,,130722,,,A*
65
$GPVTG,,T,,M,0.280,N,0.519,K,A*2PGGA,2304
31.00,2712.38229,N,08227.10775,W,1,07,1.30,1.7,M,-26.9,M,,*
65
$GPGSA,A,3,18,24,15,10,32,27,22,.37,1.30,1.98*
08
$GPGSV,4,1,15,05,02,101,09,10,36319,29,12,00,126,,15,26,046,18*
7F
$GPGSV,4,2,15,18,70,166,22,22,13,17,23,55,358,08,24,55,079,19*
71
$GPGSV,4,3,15,25,00,162,,27,13,29,06,184,,32,32,253,27*71

$GPGSV,4,4,15,46,30,28,34,244,,51,49,227,*4A

$GPGLL,2712.38229,N,08227.1077531.00,A,A*73

$GPRMC,230432.00,A,2712.38240,N,08227.10769,W,0.046,,130722,,,A*
6C
$GPVTG,,T,,M,0.046,N,0.085,K,A*2C

$GPGGA,230432.00,2712.38240,N,08227.10769,1.19,1.7,M,-26.9,M,,*
60
$GPGSA,A,3,18,24,23,15,10,32,27,,2.11,1.19,1.74*
04
$GPGSV,4,1,15,05,02,101,,10,36,39,30,12,00,126,,15,26,046,19*
7F
$GPGSV,4,2,15,18,70,166,23,22,13240,16,23,55,358,09,24,55,079,19*
70
$GPGSV,4,3,15,25,00,162,,27,13,24,22,29,06,184,,32,32,253,28*
7E
$GPGSV,4,4,15,46,30,247,,48,34,249,227,*4A

$GPGLL,2712.38240,N,08227.10769,W,2304,A,A*72

$GPRMC,230433.00,A,2712.38251,N,08227.10775,W,0.034,,130722,,,A*
65
$GPVTG,,T,,M,0.034,N,0.063,K,A*2$GPGGA,230433.0
0,2712.38251,N,08227.10775,W,1,08,1.,M,-26.9,M,,*6
8
$GPGSA,A,3,18,24,23,15,10,32,27,2,,,,2.11,1.19,1.74*
04
$GPGSV,4,1,15,05,02,101,,10,36,312,00,126,,15,26,046,19*
77
$GPGSV,4,2,15,18,70,166,22,22,13,16,23,55,358,09,24,55,079,19*
71
$GPGSV,4,3,15,25,00,162,,27,13,2,29,06,184,,32,32,253,28*
7E
$GPGSV,4,4,15,46,30,247,,48,34,24,,51,49,227,*4A

$GPGLL,2712.38251,N,08227.10775,W,0433.00,A,A*7E

$GPRMC,230434.00,A,2712.38261,N,08227.10778,W,0.226,,130722,,,A*
6D
$GPVTG,,T,,M,0.226,N,0.419,K,A*2

$GPGGA,230434.00,2712.38261,N,08227.10778,W,1,08,1.19,,M,-26.9,M,,*61

$GPGSA,A,3,18,24,23,15,10,32,27,22,,,,,21.19,1.74*04

$GPGSV,4,1,15,05,02,101,,10,36,319,300,126,,15,26,046,19*7F

$GPGSV,4,2,15,18,70,166,23,240,17,23,55,358,09,24,55,079,19*71

$GPGSV,4,3,15,00,162,,27,13,294,22,29,06,184,,32,32,253,28*7E

$GP,15,46,30,247,,48,34,244,,51,49,227,*4A

$GPGLL,2712.38N,08227.10778,W,230434.00,A,A*77

$GPRMC,230435.00,A,2712.38261,N,08227.10743,W,0.074,,130722,,,A*
61
$GPVTG,,T,,M,0.074,N,0.138,K,A*2GGA,230435.00,2712.
38261,N,08227.10743,W,1,08,1.19,2.1,9,M,,*69

$GPGSA,A,3,18,24,23,15,10,32,27,22,,,,,2.11,1.
$GPGSV,4,1,15,05,02,101,,10,36,319,30,12,00,126,,15,26,04
$GPGSV,4,2,15,18,70,166,23,22,13,240,17,23,55,358,09,24,55,079,20*
7B
$GPGSV,4,3,15,25,00,162,,27,13,294,22,29,06,184,,32,32,253,28*
7E
$GPGSV,4,4,15,46,30,247,,48,34,244,,51,49,227,*4A

$GPGLL,2712.38261,N,08227.10743,W,23,A,A*7E

$GPRMC,230436.00,A,2712.38260,N,08227.10721,W,0.177,,130722,,,A*
65
$GPVTG,,T,,M,0.177,N,0.328,K,A*2230436.00,2712.38260,
N,08227.10721,W,1,07,1.43,1.8,M,-26.M,,*65

$GPGSA,A,3,18,24,23,15,10,32,27,,,,,,2.60,1.43,2B
$GPGSV,4,1,15,05,02,101,,10,36,319,30,12,00,126,,15,26,046,19*
7F
$GPGSV,4,2,15,18,70,166,23,22,13240,15,23,55,358,09,24,55,079,20*
79
$GPGSV,4,3,15,25,00,162,,27,13,2,23,29,06,184,,32,32,253,27*70

$GPGSV,4,4,15,46,30,,,48,34,244,,51,49,227,*4A

$GPGLL,2712.,08227.10721,W,230436.00,A,A*78

$GPRMC,230437.00,A,2712.38255,N,08227.10682,W,0.617,,130722,,,A*
6B
$GPVTG,,T,,M,0.617,N,1.142,K,A*2

$GPGGA,230437.00,2712.38255,N,08227.106,W,1,06,1.81,1.7,M,-26.9,M,,*
6A
$GPGSA,A,3,18,24,15,10,32,27,,,,3.43,1.81,2.91*
0A
$GPGSV,4,1,15,05,02,101,,10,36,312,00,126,,15,26,046,19*
7F
$GPGSV,4,2,15,18,70,166,23,22,13240,13,23,55,358,18,24,55,079,20*
7F
$GPGSV,4,3,15,25,00,162,,27,13,2,22,29,06,184,,32,32,253,27*
71
$GPGSV,4,4,15,46,30,247,,48,34,2,51,49,227,*
4A
$GPGLL,2712.38255,N,08227.10682,0437.00,A,A*
77
$GPRMC,230438.00,A,2712.38260,N,08227.10690,W,0.322,,130722,,,A*
62
$GPVTG,,T,,M,0.322,N,0.596,K,A*2

$GPGGA,230438.00,2712.38260,N,08227.10690,W81,1.8,M,-26.9,M,,*6F

$GPGSA,A,3,18,24,15,10,32,27,,,,,.81,2.91*0A

$GPGSV,4,1,15,05,02,101,,1019,29,12,00,126,,15,26,046,18*76

$GPGSV,15,18,70,166,23,22,13,240,11,23,55,358,155,079,20*
72
$GPGSV,4,3,15,25,00,162,,27,13,294,22,29,06,184,,32,32,253,27*
71
$GPGSV,4,4,15,46,30,247,,48,34,251,49,227,*
4A
$GPGLL,2712.38260,N,08227.10690,0438.00,A,A*
7D
$GPRMC,230439.00,A,2712.38257,N,08227.10679,W,0.135,,130722,,,A*
64
$GPVTG,,T,,M,0.135,N,0.249,K,A*2GGA,23043
9.00,2712.38257,N,08227.10679,W,1,06,-26.9,M,,*
63
$GPGSA,A,3,18,24,15,10,32,27,,,,,3.43,1.81,2.91*0A

$GPGSV,4,1,15,05,02,101,,10,19,29,12,00,126,,15,26,046,18*76

$GPGSV,4,2,15,18,70,16,240,13,23,55,358,15,24,55,079,20*72

$GPGSV,15,25,00,162,,27,13,294,22,29,06,184,,32,32,,27*71

$GPGSV,4,4,15,46,30,247,,48,34,244,,9,227,*4A

$GPGLL,2712.38257,N,08227.10679,W,20,A,A*7F

$GPRMC,230440.00,A,2712.38254,N,08227.10678,W,0.240,,130722,,,A*
69
$GPVTG,,T,,M,0.240,N,0.445,K,A*2GGA,230440.
00,2712.38254,N,08227.10678,W,1,06,1,1.5,M,-26.9,M,,*
6C
$GPGSA,A,3,18,24,15,10,32,27,,,,,,3.43,1.81,2.91*
0A
$GPGSV,4,1,15,05,02,101,,10,36,328,12,00,126,,15,26,046,18*
77
$GPGSV,4,2,15,18,70,166,23,22,130,14,23,55,358,15,24,55,079,20*75

$GPGSV,4,3,15,2,,27,13,294,22,29,06,184,,32,32,253,28*7E

$GPGSV,4,4,1547,,48,34,244,,51,49,227,*4A

$GPGLL,2712.38254,N,08227.10678,W,230440.00,A,A*73

$GPRMC,230441.00,A,2712.38206,N,08227.10650,W,0.847,,130722,,,A*
68
$GPVTG,,T,,M,0.847,N,1.568,K,A*2GPGGA,230441.00
,2712.38206,N,08227.10650,W,1,07,1.6,-0.2,M,-26.9,M,,*
4D
$GPGSA,A,3,18,24,23,10,32,27,22,.25,1.68,2.78*
0F
$GPGSV,4,1,15,05,02,101,,10,36,38,12,00,126,,15,26,046,*
7E
$GPGSV,4,2,15,18,70,166,23,22,13,13,23,55,358,15,24,55,079,20*
72
$GPGSV,4,3,15,25,00,162,,27,13,24,22,29,06,184,,32,32,253,27*
71
$GPGSV,4,4,15,46,30,247,,48,34,2,49,227,*4A

$GPGLL,2712.38206,N,08227.10650,W,230441.*7F

$GPRMC,230442.00,A,2712.38184,N,08227.10638,W,0.764,,130722,,,A*
62
$GPVTG,,T,,M,0.764,N,1.415,K,A*2PGGA,230442.00,2
712.38184,N,08227.10638,W,1,06,1.76,M,-26.9,M,,*41

$GPGSA,A,3,18,24,10,32,27,22,,,,,,,31.76,2.90*0A

$GPGSV,4,1,15,05,02,101,,10,36,319,29,126,,15,26,046,*
7F
$GPGSV,4,2,15,18,70,166,23,22,132,23,55,358,,24,55,079,21*
76
$GPGSV,4,3,15,25,00,162,,27,13,24,22,29,06,184,,32,32,253,27*
71
$GPGSV,4,4,15,46,30,247,,48,34,2,51,49,227,*4A

$GPGLL,2712.38184,N,08227.10638,W,230442.00,A,A*7B

$GPRMC,230443.00,A,2712.38166,N,08227.10611,W,0.779,,130722,,,A*
68
$GPVTG,,T,,M,0.779,N,1.443,K,A*2

$GPGGA,230443.00,2712.38166,N,08227.10611,W,1,06,1.76,M,-26.9,M,,*43

$GPGSA,A,3,18,24,10,32,27,22,,,,,,,3.3.76,2.90*0A

$GPGSV,4,1,15,05,02,101,,10,36,319,28,1,15,26,046,*7E

$GPGSV,4,2,15,18,70,166,23,22,13,240,,55,358,19,24,55,079,21*
7D
$GPGSV,4,3,15,25,00,162,,27,13,2,22,29,06,184,,32,32,253,27*
71
$GPGSV,4,4,15,46,30,247,,48,34,2,,51,49,227,*4A

$GPGLL,2712.38166,N,08227.10611,W,230443.
$GPRMC,230444.00,A,2712.38151,N,08227.10595,W,0.444,,130722,,,A*
69
$GPVTG,,T,,M,0.444,N,0.823,K,A*2$GPGGA,230444.00,2712.
38151,N,08227.10595,W,1,06,1.76,-3.3M,-26.9,M,,*4F

$GPGSA,A,3,18,24,10,32,27,22,,,,,,,3.39,.76,2.90*0A

$GPGSV,4,1,15,05,02,101,,10,36,319,28,12,00,126,046,*7E

$GPGSV,4,2,15,18,70,166,23,22,13,240,12,23,55,,24,55,079,22*7C

$GPGSV,4,3,15,25,00,162,,27,13,294,22,6,184,,32,32,253,27*71

$GPGSV,4,4,15,46,30,247,,48,34,244,51,49,227,*4A

$GPGLL,2712.38151,N,08227.10595,W,230,A,A*71

$GPRMC,230445.00,A,2712.38129,N,08227.10566,W,0.452,,130722,,,A*
6C
$GPVTG,,T,,M,0.452,N,0.838,K,A*2GA,2
30445.00,2712.38129,N,08227.10566,W,1.76,-4.5,M,-26.9,M,,*
4C
$GPGSA,A,3,18,24,10,32,27,22,,,,,3.39,1.76,2.90*
0A
$GPGSV,4,1,15,05,02,101,,10,36,38,12,00,126,,15,26,046,*
7E
$GPGSV,4,2,15,18,70,166,24,22,13240,15,23,55,358,15,24,55,079,22*71

$GPGSV,25,00,162,,27,13,294,22,29,06,184,,32,32,253,27*71

$GPGV,4,4,15,46,30,247,,48,34,244,,51,49,227
$GPGLL,2712.38129,N,08227.10566,W,230445.00,A,A*
73
$GPRMC,230446.00,A,2712.38105,N,08227.10552,W,0.735,,130722,,,A*
64
$GPVTG,,T,,M,0.735,N,1.362,K,A*2

$GPGGA,230446.00,2712.38105,N,08227.105,W,1,06,1.76,-5.8,M,-26.9,M,,*
4A
$GPGSA,A,3,18,24,10,32,27,22,,,,,,,3.39,1.76,2.90*
0A
$GPGSV,4,1,15,05,02,101,,10,36,38,12,00,126,,15,26,046,*
7E
$GPGSV,4,2,15,18,70,166,25,22,13,17,23,55,358,14,24,55,079,22*
73
$GPGSV,4,3,15,25,00,162,,27,13,29,06,184,,32,32,253,28*
7E
$GPGSV,4,4,15,46,30,247,,48,34,2,,51,49,227,*
4A
$GPGLL,2712.38105,N,08227.10552,0446.00,A,A*79

$GPRMC,230447.00,A,2712.38085,N,08227.10553,W,0.691,,130722,,,A*
62
$GPVTG,,T,,M,0.691,N,1.280,K,A*2

$GPGGA,230447.00,2712.38085,N,08227.10553,W7,1.68,-7.2,M,-26.9,M,,*
45
$GPGSA,A,3,18,24,23,10,32,27,22,68,2.78*0F

$GPGSV,4,1,15,05,02,101,,10,36,31912,00,126,,15,26,046,*
7E
$GPGSV,4,2,15,18,70,166,25,22,13,16,23,55,358,14,24,55,079,22*
72
$GPGSV,4,3,15,25,00,162,,27,13,222,29,06,184,,32,32,253,27*
71
$GPGSV,4,4,15,46,30,247,,48,34,2,49,227,*4A

$GPGLL,2712.38085,N,08227.10553,W,,A,A*70

$GPRMC,230448.00,A,2712.38056,N,08227.10533,W,0.543,,130722,,,A*
69
$GPVTG,,T,,M,0.543,N,1.005,K,A*2GA,230448.00,2712.38056,N,08227.10533,W,1,07,1.6826.9,M,,*47

$GPGSA,A,3,18,24,23,10,32,27,22,,,,,,3.25,1.68,2.79*0E

$GPGSV,4,1,15,05,02,101,,10,36,319,0,126,,15,26,046,*
7E
$GPGSV,4,2,15,18,70,166,25,22,13240,16,23,55,358,15,24,55,079,21*
70
$GPGSV,4,3,15,25,00,162,,27,13,229,06,184,,32,32,253,27*
71
$GPGSV,4,4,15,46,30,247,,48,34,251,49,227,*4A

$GPGLL,2712.38056,N,08227.10533,W,.00,A,A*77

$GPRMC,230449.00,A,2712.38038,N,08227.10533,W,0.620,,130722,,,A*
66
$GPVTG,,T,,M,0.620,N,1.149,K,A*2GA,230449.00,2
712.38038,N,08227.10533,W,1,07,1.68,,M,-26.9,M,,*4
F
$GPGSA,A,3,18,24,23,10,32,27,22,,,,3.25,1.68,2.79*
0E
$GPGSV,4,1,15,05,02,101,,10,36,30,126,,15,26,046,*7E

$GPGSV,4,2,15,18,70,166,25,22,1315,23,55,358,15,24,55,079,22*70

$GPGSV,4,3,15,25,00,1627,13,294,22,29,06,184,,32,32,253,27*71

$GPGSV,430,247,,48,34,244,,51,49,227,*4A

$GPGLL,2712.380308227.10533,W,230449.00,A,A*7E

$GPRMC,230450.00,A,2712.38019,N,08227.10520,W,0.819,,130722,,,A*
6B
$GPVTG,,T,,M,0.819,N,1.516,K,A*2$GPGGA,230450.00,
2712.38019,N,08227.10520,W,1,07,1.68,-10.9,M,-26.9,M,,*
7F
$GPGSA,A,3,18,24,23,10,32,27,22,,,,3.25,1.68,2.79*
0E
$GPGSV,4,1,15,05,02,101,,10,36,3,26,046,*7E

$GPGSV,4,2,15,18,70,166,24,22,13,240,18,14,24,55,079,22*
73
$GPGSV,4,3,15,25,00,162,,27,13,29,06,184,,32,32,253,27*71

$GPGSV,4,4,15,46,30,247,,48,351,49,227,*4A

$GPGLL,2712.38019,N,08227.10520,W,230450.00A,A*77

$GPRMC,230451.00,A,2712.37999,N,08227.10515,W,0.684,,130722,,,A*
68
$GPVTG,,T,,M,0.684,N,1.267,K,A*2

$GPGGA,230451.00,2712.37999,N,08227.10515,W,1,07,1.68,M,-26.9,M,,*7D

$GPGSA,A,3,18,24,23,10,32,27,22,,,,,,3.,1.68,2.79*0E

$GPGSV,4,1,15,05,02,101,,10,36,319,29,12,15,26,046,*7F

$GPGSV,4,2,15,18,70,166,25,22,13,240,17,358,15,24,55,079,22*
72
$GPGSV,4,3,15,25,00,162,,27,13,22,29,06,184,,32,32,253,27*
71
$GPGSV,4,4,15,46,30,247,,48,34,2,,51,49,227,*4A

$GPGLL,2712.37999,N,08227.10515,W,23045,A,A*7E

$GPRMC,230452.00,A,2712.37989,N,08227.10505,W,0.606,,130722,,,A*
61
$GPVTG,,T,,M,0.606,N,1.122,K,A*2

$GPGGA,230452.00,2712.37989,N,08227.10505,W,1,07,1.68,0,M,-26.9,M,,*7F

$GPGSA,A,3,18,24,23,10,32,27,22,,,,,,8,2.79*0E

$GPGSV,4,1,15,05,02,101,,10,36,319,28,12,00,15,26,046,*7E

$GPGSV,4,2,15,18,70,166,25,22,13,240,17,2317,24,55,079,22*70

$GPGSV,4,3,15,25,00,162,,27,13,294,229,06,184,,32,32,253,27*71

$GPGSV,4,4,15,46,30,247,,48,3,49,227,*4A

$GPGLL,2712.37989,N,08227.1505,W,230452.00,A,A*7D

$GPRMC,230453.00,A,2712.37967,N,08227.10503,W,0.080,,130722,,,A*
6E
$GPVTG,,T,,M,0.080,N,0.148,K,A*2GGA,230453.00,2712.37967,N,08227.10503,W,1,013.9,M,-26.9,M,,*71

$GPGSA,A,3,18,24,23,10,32,27,22,,,,,,.68,2.79*
0E
$GPGSV,4,1,15,05,02,101,,10,36,39,28,12,00,126,,15,26,046,20*
7C
$GPGSV,4,2,15,18,70,166,25,22,1340,17,23,55,358,16,24,55,079,22*
71
$GPGSV,4,3,15,25,00,162,,27,13,222,29,06,184,,32,32,253,27*
71
$GPGSV,4,4,15,46,30,247,,48,34,2,,51,49,227,*
4A
$GPGLL,2712.37967,N,08227.10503,30453.00,A,A*
7A
$GPRMC,230454.00,A,2712.37964,N,08227.10509,W,0.105,,130722,,,A*
6C
$GPVTG,,T,,M,0.105,N,0.195,K,A*2$GPGGA
,230454.00,2712.37964,N,08227.10509,7,1.68,-14.5,M,-26.9,M,,*
74
$GPGSA,A,3,18,24,23,10,32,27,22,,3.25,1.68,2.79*
0E
$GPGSV,4,1,15,05,02,101,12,10,3600,126,,15,26,046,17*7A

$GPGSV,4,2,15,18,70,16625,22,13,240,17,23,55,358,14,24,55,079,22*73

$GPGSV,4,35,00,162,,27,13,294,21,29,06,184,,32,32,22
$GPGSV,4,4,15,46,30,247,,48,34,244,,51,49,227,*
4A
$GPGLL,2712.37964,N,08227.10509,,230454.00,A,A*
74
$GPRMC,230455.00,A,2712.37961,N,08227.10503,W,0.443,,130722,,,A*
65
$GPVTG,,T,,M,0.443,N,0.821,K,A*2

$GPGGA,230455.00,2712.37961,N,08227.10503,W,07,1.68,-14.9,M,-26.9,M,,*
76
$GPGSA,A,3,18,24,23,10,32,27,22,3.25,1.68,2.79*
0E
$GPGSV,4,1,15,05,02,101,10,10,36,28,12,00,126,,15,26,046,*
7F
$GPGSV,4,2,15,18,70,166,25,22,130,17,23,55,358,13,24,55,079,22*
74
$GPGSV,4,3,15,25,00,162,,27,13,2,22,29,06,184,,32,32,253,27*
71
$GPGSV,4,4,15,46,30,247,,48,34,244,,51,49,227,*4A

$GPGLL,2712.37961,N,08227.10505.00,A,A*7A

$GPRMC,230456.00,A,2712.37951,N,08227.10493,W,0.639,,130722,,,A*
62
$GPVTG,,T,,M,0.639,N,1.184,K,A*2GPGGA,23045
6.00,2712.37951,N,08227.10493,W,1,071.68,-15.4,M,-26.9,M,,*
72
$GPGSA,A,3,18,24,23,10,32,27,22,3.25,1.68,2.79*
0E
$GPGSV,4,1,15,05,02,101,09,10,369,28,12,01,126,,15,26,046,*
76
$GPGSV,4,2,15,18,70,166,25,22,130,16,23,55,358,13,24,55,079,22*
75
$GPGSV,4,3,15,25,00,162,,27,13,2,22,29,06,184,,32,32,253,27*
71
$GPGSV,4,4,15,46,30,247,,48,34,249,227,*4A

$GPGLL,2712.37951,N,08227.10493,W,23.00,A,A*72

$GPRMC,230457.00,A,2712.37941,N,08227.10470,W,0.584,,130722,,,A*
6A
$GPVTG,,T,,M,0.584,N,1.082,K,A*2$GPGGA,230457.
00,2712.37941,N,08227.10470,W,1,07,18,-16.2,M,-26.9,M,,*
7A
$GPGSA,A,3,18,24,23,10,32,27,22,,,,,,3.25,1.68,2.79*
0E
$GPGSV,4,1,15,05,02,101,09,10,369,28,12,01,126,,15,26,046,*
76
$GPGSV,4,2,15,18,70,166,25,22,135,358,15,24,55,079,22*
72
$GPGSV,4,3,15,25,00,162,,27,13,22,29,06,184,,32,32,253,27*
71
$GPGSV,4,4,15,46,30,247,,48,34,21,49,227,*4A

$GPGLL,2712.37941,N,08227.10470,W,2300,A,A*7F

$GPRMC,230458.00,A,2712.37938,N,08227.10480,W,0.472,,130722,,,A*
6C
$GPVTG,,T,,M,0.472,N,0.874,K,A*29

$GPGGA,230458.00,2712.37938,N,08227.10480,W,1,,-16.7,M,-26.9,M,,*71

$GPGSA,A,3,18,24,23,10,32,27,22,1.68,2.79*0D

$GPGSV,4,1,15,05,02,101,09,10,36,319,28,12126,,15,26,046,26*72

$GPGSV,4,2,15,18,70,166,25,22240,18,23,55,358,17,24,55,079,22*7F

$GPGSV,4,3,15,,,27,13,294,24,29,06,184,,32,32,253,27*77

$GPGSV,430,247,,48,34,244,,51,49,227,*4A

$GPGLL,2712.37938,N,0.10480,W,230458.00,A,A*71

$GPRMC,230459.00,A,2712.37929,N,08227.10490,W,0.501,,130722,,,A*
69
$GPVTG,,T,,M,0.501,N,0.928,K,A*2$GPGGA,230459.00,27
12.37929,N,08227.10490,W,1,07,1.68,-7.3,M,-26.9,M,,*74

$GPGSA,A,3,18,24,23,10,32,27,22,,,,6,1.68,2.79*0D

$GPGSV,4,1,15,05,02,101,08,10,36,319,01,126,,15,25,047,25*7B

$GPGSV,4,2,15,18,70,166,24,22,13,8,23,55,358,18,24,55,079,22*71

$GPGSV,4,3,15,25,00,162,3,294,24,29,06,184,,32,32,253,27*77

$GPGSV,4,4,15,46,3047,,48,34,244,,51,49,227,*4A

$GPGLL,2712.37929,N,08227,W,230459.00,A,A*71

$GPRMC,230500.00,A,2712.37922,N,08227.10494,W,0.648,,130722,,,A*
65
$GPVTG,,T,,M,0.648,N,1.200,K,A*2A

$GPGGA,230500.00,2712.37922,N,08227.10494,W,1,07,1.7,M,-26.9,M,,*72

$GPGSA,A,3,18,24,23,10,32,27,22,,,,,,3,1.68,2.79*0D

$GPGSV,4,1,15,05,02,101,07,10,36,319,30,1,126,,15,25,047,22*73

$GPGSV,4,2,15,18,70,166,25,22,13,2,23,55,358,19,24,55,079,21*
7C
$GPGSV,4,3,15,25,00,162,,27,13,23,29,06,184,,32,32,253,26*71

$GPGSV,4,4,15,46,30,24,34,244,,51,49,227,*4A

$GPGLL,2712.37922,N,10494,W,230500.00,A,A*73

$GPRMC,230501.00,A,2712.37920,N,08227.10526,W,0.496,,130722,,,A*
6F
$GPVTG,,T,,M,0.496,N,0.918,K,A*2$GPG
GA,230501.00,2712.37920,N,08227.1052,08,1.19,-17.3,M,-26.9,M,,*
74
$GPGSA,A,3,18,24,23,15,10,32,27,,,,,,2.11,1.19,1.74*
04
$GPGSV,4,1,15,05,02,101,07,10,3612,01,126,,15,25,047,21*
71
$GPGSV,4,2,15,18,70,166,25,22,133,55,358,20,24,55,079,22*
76
$GPGSV,4,3,15,25,00,162,,27,13,23,29,06,184,,32,32,253,26*
71
$GPGSV,4,4,15,46,30,247,,48,34,249,227,*
4A
$GPGLL,2712.37920,N,08227.10526,230501.00,A,A*78

$GPRMC,230502.00,A,2712.37906,N,08227.10527,W,0.455,,130722,,,A*
66
$GPVTG,,T,,M,0.455,N,0.842,K,A*2$GPGGA,
230502.00,2712.37906,N,08227.10527,W9,-17.4,M,-26.9,M,,*
75
$GPGSA,A,3,18,24,23,15,10,32,27,2.11,1.19,1.74*
04
$GPGSV,4,1,15,05,02,101,06,10,369,32,12,01,126,,15,25,047,22*
70
$GPGSV,4,2,15,18,70,166,26,22,13,14,23,55,358,20,24,55,079,23*
75
$GPGSV,4,3,15,25,00,162,,27,13,294,23,29,06,184,,32,32,253,26*
71
$GPGSV,4,4,15,46,30,247,,48,34,21,49,227,*
4A
$GPGLL,2712.37906,N,08227.10527,.00,A,A*7
E
$GPRMC,230503.00,A,2712.37902,N,08227.10544,W,0.617,,130722,,,A*
62
$GPVTG,,T,,M,0.617,N,1.142,K,A*2PGGA,230503.00,2712.37902,N,08227.10544,W,1,08,17.1,M,-26.9,M,,*70

$GPGSA,A,3,18,24,23,15,10,32,27,22,,,,1.19,1.74*
04
$GPGSV,4,1,15,05,02,101,06,10,369,32,12,01,126,,15,25,047,22*
70
$GPGSV,4,2,15,18,70,166,27,22,13,14,23,55,358,20,24,55,079,23*
74
$GPGSV,4,3,15,25,00,162,,27,13,2,29,06,184,,32,32,253,26*
71
$GPGSV,4,4,15,46,30,247,,48,34,251,49,227,*
4A
$GPGLL,2712.37902,N,08227.10544,W,230503.00,A,A*
7E
$GPRMC,230504.00,A,2712.37898,N,08227.10561,W,0.619,,130722,,,A*
6E
$GPVTG,,T,,M,0.619,N,1.147,K,A*2

$GPGGA,230504.00,2712.37898,N,08227.10561,W,1,08.19,-16.8,M,-26.9,M,,*
7A
$GPGSA,A,3,18,24,23,15,10,32,27,,,,2.11,1.19,1.74*
04
$GPGSV,4,1,15,05,02,101,06,10,36319,32,12,01,126,,15,25,047,23*71

$GPGSV,4,2,15,18,7166,27,22,13,240,15,23,55,358,20,24,55,079,23*75

$GPGSV25,00,162,,27,13,294,23,29,06,184,,32,32,253,26*71GSV,4,4,15,4
6,30,247,,48,34,244,,51,49,227,*4A

GPGLL,2712.37898,N,08227.10561,W,230504.00,A,A*7C
$GPRMC,230505.00,A,2712.37895,N,08227.10556,W,0.605,,130722,,,A*
6B
$GPVTG,,T,,M,0.605,N,1.121,K,A*2

$GPGGA,230505.00,2712.37895,N,08227.10556,W,1,08,-16.9,M,-26.9,M,,*
73
$GPGSA,A,3,18,24,23,15,10,32,27,,,2.11,1.19,1.74*
04
$GPGSV,4,1,15,05,02,101,06,10,3632,12,01,126,,15,25,047,23*
71
$GPGSV,4,2,15,18,70,166,27,22,1315,23,55,358,21,24,55,079,24*
73
$GPGSV,4,3,15,25,00,162,,27,13,2,23,29,06,184,,32,32,253,26*71

$GPGSV,4,4,15,46,30,247,34,244,,51,49,227,*4A

$GPGLL,2712.37895,N,08227.10556,W.00,A,A*74

$GPRMC,230506.00,A,2712.37891,N,08227.10577,W,0.183,,130722,,,A*
66
$GPVTG,,T,,M,0.183,N,0.339,K,A*2PGGA,230506.00,2
712.37891,N,08227.10577,W,1,08,1.19,,M,-26.9,M,,*7B

$GPGSA,A,3,18,24,23,15,10,32,27,22,,,,2.11,1.19,1.74*
04
$GPGSV,4,1,15,05,02,101,06,10,362,12,01,126,,15,25,047,23*
71
$GPGSV,4,2,15,18,70,166,27,22,130,16,23,55,358,21,24,55,079,23*
77
$GPGSV,4,3,15,25,00,162,,27,13,24,23,29,06,184,,32,32,253,26*
71
$GPGSV,4,4,15,46,30,247,,48,34,21,49,227,*4A

$GPGLL,2712.37891,N,08227.10577,W,230506.A*70

$GPRMC,230507.00,A,2712.37895,N,08227.10581,W,0.391,,130722,,,A*
6B
$GPVTG,,T,,M,0.391,N,0.725,K,A*2$GPGGA,230507.00,271
2.37895,N,08227.10581,W,1,08,1.19,-1-26.9,M,,*72

$GPGSA,A,3,18,24,23,15,10,32,27,22,,,,9,1.74*04

$GPGSV,4,1,15,05,02,101,06,10,36,319,32,12,,25,047,23*71

$GPGSV,4,2,15,18,70,166,27,22,13,240,16,2,359,22,24,55,079,24*
72
$GPGSV,4,3,15,25,00,162,,27,13,294,23,29,06,184,,32,32,253,26*
71
$GPGSV,4,4,15,46,30,247,,48,34,251,49,227,*4A

$GPGLL,2712.37895,N,08227.10581,W,230507
$GPRMC,230508.00,A,2712.37889,N,08227.10592,W,0.297,,130722,,,A*
6C
$GPVTG,,T,,M,0.297,N,0.550,K,A*2A,230508.00,2712.37889
,N,08227.10592,W,1,08,1.19,-15.8,M,-,M,,*79

$GPGSA,A,3,18,24,23,15,10,32,27,22,,,,,2.11,1.19,1.$GPGSV,4,1,15,05,02,101,07,10,36,319,32,12,01,126,,15,25,3*70

$GPGSV,4,2,15,18,70,166,27,22,13,240,16,23,55,359,,078,23*76

$GPGSV,4,3,15,25,00,162,,27,13,294,23,2906,184,,32,32,253,26*71

$GPGSV,4,4,0,247,,48,34,244,,51,49,227,*4A

$GP,2712.37889,N,08227.10592,W,230508.0
$GPRMC,230509.00,A,2712.37878,N,08227.10600,W,0.236,,130722,,,A*
60
$GPVTG,,T,,M,0.236,N,0.438,K,A*2PGGA
,230509.00,2712.37878,N,08227.10600,8,1.19,-15.7,M,-26.9,M,,*
71
$GPGSA,A,3,18,24,23,15,10,32,27,22,,,,,2.11,1.19,1.74*
04
$GPGSV,4,1,15,05,02,101,07,10,36,31,12,01,126,,15,25,047,23*
73
$GPGSV,4,2,15,18,70,166,27,22,130,16,23,55,359,21,24,54,078,23*
76
$GPGSV,4,3,15,25,00,162,,27,13,223,29,06,184,,32,32,253,26*71

$GPGSV,4,4,1530,247,,48,34,244,,51,49,227,*4A

$GPGLL,2712.37878,N,080,W,230509.00,A,A*7B

$GPRMC,230510.00,A,2712.37872,N,08227.10613,W,0.031,,130722,,,A*
65
$GPVTG,,T,,M,0.031,N,0.057,K,A*2GPGGA,
230510.00,2712.37872,N,08227.10613,W1.19,-15.4,M,-26.9,M,,*72

$GPGSA,A,3,18,24,23,15,10,32,27,22,,2.11,1.19,1.74*
04
$GPGSV,4,1,15,05,02,101,07,10,36,31,12,01,126,,15,25,047,23*
73
$GPGSV,4,2,15,18,70,166,27,22,13,15,23,55,359,21,24,54,078,23*
75
$GPGSV,4,3,15,25,00,162,,27,13,23,29,06,184,,32,32,253,26*
71
$GPGSV,4,4,15,46,30,247,,48,34,24,,51,49,227,*
4A
$GPGLL,2712.37872,N,08227.10613,10.00,A,A*7B

$GPRMC,230511.00,A,2712.37872,N,08227.10612,W,0.181,,130722,,,A*
6F
$GPVTG,,T,,M,0.181,N,0.335,K,A*2PGGA,2305
11.00,2712.37872,N,08227.10612,W,1,01.19,-15.3,M,-26.9,M,,*
75
$GPGSA,A,3,18,24,23,15,10,32,27,,,,,2.11,1.19,1.74*
04
$GPGSV,4,1,15,05,02,101,07,10,3631,12,01,126,,15,25,047,22*
72
$GPGSV,4,2,15,18,70,166,27,22,13,240,14,23,55,359,21,24,54,078,23*
74
$GPGSV,4,3,15,25,00,162,,27,13,23,23,29,06,184,,32,32,253,25*
75
$GPGSV,4,4,15,46,30,247,,48,34,2,51,49,227,*
4A
$GPGLL,2712.37872,N,08227.10612,0511.00,A,A*
7B
$GPRMC,230512.00,A,2712.37864,N,08227.10629,W,0.235,,130722,,,A*
6F
$GPVTG,,T,,M,0.235,N,0.436,K,A*2GA,230512.00,2712.37864,N,08227.10629,W,1,08,1.19,,M,-26.9,M,,*72

$GPGSA,A,3,18,24,23,15,10,32,27,22,,,,,,1.19,1.74*0
4
$GPGSV,4,1,15,05,02,101,07,10,36,,12,01,126,,15,25,047,23*
73
$GPGSV,4,2,15,18,70,166,27,22,13,14,23,55,359,21,24,54,078,23*
74
$GPGSV,4,3,15,25,00,162,,27,13,23,29,05,184,,32,32,253,25*
76
$GPGSV,4,4,15,46,30,247,,48,34,2,49,227,*4A

$GPGLL,2712.37864,N,08227.10629,W,230
$GPRMC,230513.00,A,2712.37865,N,08227.10622,W,0.418,,130722,,,A*
6D
$GPVTG,,T,,M,0.418,N,0.774,K,A*2$GPGGA,230513.
00,2712.37865,N,08227.10622,W,1,08,19,-14.9,M,-26.9,M,,*
79
$GPGSA,A,3,18,24,23,15,10,32,27,,2.11,1.19,1.74*
04
$GPGSV,4,1,15,05,02,101,07,10,36,31,12,01,126,,15,25,047,23*
73
$GPGSV,4,2,15,18,70,166,27,22,133,55,359,21,24,54,078,23*75

$GPGSV,4,3,15,25,00,162,,3,23,29,05,184,,32,32,253,25*76

$GPGSV,4,4,15,46,30,2478,34,244,,51,49,227,*4A

$GPGLL,2712.37865,N,08227,W,230513.00,A,A*7C

$GPRMC,230514.00,A,2712.37864,N,08227.10620,W,0.423,,130722,,,A*
61
$GPVTG,,T,,M,0.423,N,0.783,K,A*2$GPGGA,230514.00,
2712.37864,N,08227.10620,W,1,08,1.194.8,M,-26.9,M,,*
7C
$GPGSA,A,3,18,24,23,15,10,32,27,11,1.19,1.74*04

$GPGSV,4,1,15,05,02,101,10,10,36,31912,01,126,,15,25,047,23*
75
$GPGSV,4,2,15,18,70,166,27,22,130,16,23,55,359,21,24,54,078,23*
76
$GPGSV,4,3,15,25,00,162,,27,13,23,29,05,184,,32,32,253,25*
76
$GPGSV,4,4,15,46,30,247,,48,34,21,49,227,*4A

$GPGLL,2712.37864,N,08227.10620,W,230514.00,A,A*78

$GPRMC,230515.00,A,2712.37865,N,08227.10613,W,0.480,,130722,,,A*
68
$GPVTG,,T,,M,0.480,N,0.890,K,A*2$GPGGA,230515.00,271
2.37865,N,08227.10613,W,1,08,1.19,-1,-26.9,M,,*7C

$GPGSA,A,3,18,24,23,15,10,32,27,22,,,,,21.74*04

$GPGSV,4,1,15,05,02,101,10,10,36,319,32,12,01,,15,25,047,23*76

$GPGSV,4,2,15,18,70,166,27,22,13,240,1,359,22,24,54,078,24*
72
$GPGSV,4,3,15,25,00,162,,27,13,23,23,29,05,184,,32,32,253,25*
76
$GPGSV,4,4,15,46,30,247,,48,34,24,,51,49,227,*4A

$GPGLL,2712.37865,N,08227.10613,W,230,A*78

$GPRMC,230516.00,A,2712.37859,N,08227.10629,W,0.240,,130722,,,A*
67
$GPVTG,,T,,M,0.240,N,0.445,K,A*2GPGGA,230516.00,2712.3
7859,N,08227.10629,W,1,08,1.19,-14.626.9,M,,*77

$GPGSA,A,3,18,24,23,15,10,32,27,22,,,,,2.1104
$GPGSV,4,1,15,05,02,101,10,10,36,319,31,12,01,126,,15,25,047,23*
75
$GPGSV,4,2,15,18,70,166,27,22,130,15,23,55,359,22,24,54,078,24*71

$GPGSV,4,3,15,25,7,13,293,24,29,05,184,,32,32,253,25*71

GSV,4,4,15,46,30,247,,48,34,244,,51,49,2
$GPGLL,2712.37859,N,08227.10629,W,230516.00,A,A*
7D
$GPRMC,230517.00,A,2712.37856,N,08227.10642,W,0.206,,130722,,,A*
66
$GPVTG,,T,,M,0.206,N,0.381,K,A*2

$GPGGA,230517.00,2712.37856,N,08227.102,W,1,08,1.19,-14.4,M,-26.9,M,,*
76
$GPGSA,A,3,18,24,23,15,10,32,27,,,2.11,1.19,1.74*
04
$GPGSV,4,1,15,05,02,101,10,10,369,31,12,01,126,,15,25,047,23*75

$GPGSV,4,2,18,70,166,27,22,13,240,15,23,55,359,22,24,54,078,24*71

$GPGSV,4,25,00,162,,27,13,293,24,29,05,184,,32,3253,25*
71
$GPGSV,4,4,15,46,30,247,,48,34,24,,51,49,227,*
4A
$GPGLL,2712.37856,N,08227.10642,517.00,A,A*
7E
$GPRMC,230518.00,A,2712.37850,N,08227.10654,W,0.150,,130722,,,A*
68
$GPVTG,,T,,M,0.150,N,0.277,K,A*2PGGA,23
0518.00,2712.37850,N,08227.10654,W,108,1.19,-14.2,M,-26.9,M,,*
7E
$GPGSA,A,3,18,24,23,15,10,32,27,22,,,,,2.11,1.19,1.74*
04
$GPGSV,4,1,15,05,02,101,10,10,3619,31,12,01,126,,15,25,047,23*
75
$GPGSV,4,2,15,18,70,166,27,22,13,15,23,55,359,22,24,54,078,24*
71
$GPGSV,4,3,15,25,00,162,,27,13,2,24,29,05,184,,32,32,253,25*71

$GPGSV,4,4,15,46,,247,,48,34,244,,51,49,227,*4A

$GPGLL,2712.37850,N,08227.106530518.00,A,A*70

$GPRMC,230519.00,A,2712.37845,N,08227.10658,W,0.138,,130722,,,A*
6F
$GPVTG,,T,,M,0.138,N,0.255,K,A*2PGGA,2305
19.00,2712.37845,N,08227.10658,W,1,019,-14.4,M,-26.9,M,,*
71
$GPGSA,A,3,18,24,23,15,10,32,27,22,,,,,2.11,1.19,1.74*
04
$GPGSV,4,1,15,05,02,101,,10,36,312,01,126,,15,25,047,23*
74
$GPGSV,4,2,15,18,70,166,27,22,136,23,55,359,22,24,54,078,24*
72
$GPGSV,4,3,15,25,00,162,,27,13,293,205,184,,32,32,253,25*
76
$GPGSV,4,4,15,46,30,247,,48,34,2,51,49,227,*
4A
$GPGLL,2712.37845,N,08227.10658,9.00,A,A*79

$GPRMC,230520.00,A,2712.37846,N,08227.10655,W,0.241,,130722,,,A*
66
$GPVTG,,T,,M,0.241,N,0.447,K,A*2GPGGA,230520
.00,2712.37846,N,08227.10655,W,1,08,19,-14.3,M,-26.9,M,,*
72
$GPGSA,A,3,18,24,23,15,10,32,27,,,2.11,1.19,1.74*
04
$GPGSV,4,1,15,05,02,101,,10,36,31,12,01,126,,15,25,047,24*
73
$GPGSV,4,2,15,18,70,166,27,22,13,16,23,55,359,21,24,54,078,24*
71
$GPGSV,4,3,15,25,00,162,,27,13,23,23,29,05,184,,32,32,253,25*
76
$GPGSV,4,4,15,46,30,247,,48,34,21,49,227,*4A

$GPGLL,2712.37846,N,08227.10655,W,23.00,A,A*7D

$GPRMC,230521.00,A,2712.37833,N,08227.10671,W,0.241,,130722,,,A*
63
$GPVTG,,T,,M,0.241,N,0.446,K,A*2

$GPGGA,230521.00,2712.37833,N,08227.10671,W,1,08,1.14,M,-26.9,M,,*70

$GPGSA,A,3,18,24,23,15,10,32,27,22,,,,.74*04

$GPGSV,4,1,15,05,02,101,,10,36,319,31,126,,15,25,047,24*73

$GPGSV,4,2,15,18,70,166,27,22,0,17,23,55,359,22,24,54,078,24*73

$GPGSV,4,3,15,20,162,,27,13,293,23,29,05,184,,32,32,253,25*76

$G,4,4,15,46,30,247,,48,34,244,,51,49,227,*4A

$GPGLL,12.37833,N,08227.10671,W,230521.00,A,A*78

$GPRMC,230522.00,A,2712.37830,N,08227.10671,W,0.177,,130722,,,A*
65
$GPVTG,,T,,M,0.177,N,0.328,K,A*2B

$GPGGA,230522.00,2712.37830,N,08227.10671,W,1,089,-14.5,M,-26.9,M,,*
71
$GPGSA,A,3,18,24,23,15,10,32,27,2.11,1.19,1.74*04

$GPGSV,4,1,15,05,02,101,,10,36,319,311,126,,15,25,047,24*73

$GPGSV,4,2,15,18,70,166,27,22,13,,23,55,359,21,24,54,078,24*70

$GPGSV,4,3,15,25,00,16,27,13,293,23,29,05,184,,32,32,253,25*76

$GPGSV,4,4,15,30,247,,48,34,244,,51,49,227,*4A

$GPGLL,2712.37830,N,0227.10671,W,230522.00,A,A*78

$GPRMC,230523.00,A,2712.37830,N,08227.10679,W,0.124,,130722,,,A*
6A
$GPVTG,,T,,M,0.124,N,0.230,K,A*2PGGA,230523.00,2712.
37830,N,08227.10679,W,1,08,1.19,-14.,M,-26.9,M,,*79

$GPGSA,A,3,18,24,23,15,10,32,27,22,,,,.11,1.19,1.74*04

$GPGSV,4,1,15,05,02,101,,10,36,319,3101,126,,15,25,047,24*
73
$GPGSV,4,2,15,18,70,166,27,22,1318,23,55,359,21,24,54,078,25*7E

$GPGSV,4,3,15,25,00,162,,23,293,23,29,05,184,,32,32,253,25*76

$GPGSV,4,4,15,46,3048,34,244,,51,49,227,*4A

$GPGLL,2712.37830,N,08227.106723.00,A,A*71

$GPRMC,230524.00,A,2712.37825,N,08227.10691,W,0.238,,130722,,,A*
61
$GPVTG,,T,,M,0.238,N,0.440,K,A*2

$GPGGA,230524.00,2712.37825,N,08227.10691,W,1,08,1.19,,M,-26.9,M,,*79

$GPGSA,A,3,18,24,23,15,10,32,27,22,,,,,19,1.74*04

$GPGSV,4,1,15,05,02,101,,10,36,319,31,12,25,047,24*73

$GPGSV,4,2,15,18,70,113,240,18,23,55,359,21,24,54,078,24*GS
V,4,3,15,25,00,162,,27,13,293,23,29,4,,32,32,253,25*
76
$GPGSV,4,4,15,46,30,247,,48,34,21,49,227,*4A

$GPGLL,2712.37825,N,08227.1069W,230524.00,A,A*74

$GPRMC,230525.00,A,2712.37825,N,08227.10697,W,0.162,,130722,,,A*
6A
$GPVTG,,T,,M,0.162,N,0.299,K,A*2A,23
0525.00,2712.37825,N,08227.10697,W,108,1.19,-13.9,M,-26.9,M,,*
71
$GPGSA,A,3,18,24,23,15,10,32,27,,,,2.11,1.19,1.74*
04
$GPGSV,4,1,15,05,02,101,,10,36,3,31,12,01,126,,15,25,047,24*
73
$GPGSV,4,2,15,18,70,166,27,22,1318,23,55,359,21,24,54,078,25*
7E
$GPGSV,4,3,15,25,00,162,,27,13,223,29,05,184,,32,32,253,25*
76
$GPGSV,4,4,15,46,30,247,,48,34,21,49,227,*
4A
$GPGLL,2712.37825,N,08227.10697,230525.00,A,A*
73
$GPRMC,230526.00,A,2712.37827,N,08227.10679,W,0.431,,130722,,,A*
68
$GPVTG,,T,,M,0.431,N,0.798,K,A*2GPGGA,2
30526.00,2712.37827,N,08227.10679,W,,06,1.40,-14.2,M,-26.9,M,,*
7E
$GPGSA,A,3,18,24,15,10,32,22,,,,40,2.02*0
C
$GPGSV,4,1,15,05,02,101,,10,36,3129,12,01,126,,15,25,047,23*
7D
$GPGSV,4,2,15,18,70,166,24,22,137,23,55,359,,24,54,078,22*
76
$GPGSV,4,3,15,25,00,162,,27,13,229,05,184,,32,32,253,25*
77
$GPGSV,4,4,15,46,30,247,,48,34,251,49,227,*
4A
$GPGLL,2712.37827,N,08227.10679,00,A,A*72

$GPRMC,230527.00,A,2712.37835,N,08227.10664,W,0.450,,130722,,,A*
61
$GPVTG,,T,,M,0.450,N,0.834,K,A*2D

$GPGGA,230527.00,2712.37835,N,08227.10664,,06,1.40,-14.2,M,-26.9,M,,*70

$GPGSA,A,3,18,24,1,32,22,,,,,,,2.46,1.40,2.02*0C

$GPGSV,4,1,15,05,02,101,,26,,15,25,047,22*7C

$GPGSV,4,2,15,18,70,166,240,14,23,55,359,17,24,54,078,21*76

$GPGSV,5,00,162,,27,13,293,23,29,05,184,,32,32,253,76
$GPGSV,4,4,15,46,30,247,,48,34,244,,51,49,227,*
4A
$GPGLL,2712.37835,N,08227.10664,30527.00,A,A*
7C
$GPRMC,230528.00,A,2712.37831,N,08227.10652,W,0.565,,130722,,,A*
68
$GPVTG,,T,,M,0.565,N,1.047,K,A*2$GPGGA,23052
8.00,2712.37831,N,08227.10652,W,1,06-14.3,M,-26.9,M,,*
7F
$GPGSA,A,3,18,24,15,10,32,22,,,,,,,2.46,1.40,2.02*
0C
$GPGSV,4,1,15,05,02,101,,10,36,3,01,126,,15,25,047,23*
75
$GPGSV,4,2,15,18,70,166,21,22,1315,23,55,359,17,24,54,078,19*7F

$GPGSV,4,3,15,25,00,127,13,293,21,29,05,184,,32,32,253,25*74

$GPGSV,4,4,15,447,,48,34,244,,51,49,227,*4A

$GPGLL,2712.37831,N,08227.10652,W,230528.00,A,A*72

$GPRMC,230529.00,A,2712.37819,N,08227.10647,W,0.760,,130722,,,A*
60
$GPVTG,,T,,M,0.760,N,1.407,K,A*2

$GPGGA,230529.00,2712.37819,N,08227.10647,W,1,06,40,-14.2,M,-26.9,M,,*
71
$GPGSA,A,3,18,24,15,10,32,22,,,,46,1.40,2.02*0C

$GPGSV,4,1,15,05,02,101,,10,36,31912,01,126,,15,25,047,23*
75
$GPGSV,4,2,15,18,70,166,22,22,1316,23,55,359,17,24,54,078,20*
75
$GPGSV,4,3,15,25,00,162,,27,13,229,05,184,,32,32,253,25*
7E
$GPGSV,4,4,15,46,30,247,,48,34,2,51,49,227,*4A

$GPGLL,2712.37819,N,08227.10647,W,230529A,A*7D

$GPRMC,230530.00,A,2712.37785,N,08227.10656,W,1.215,,130722,,,A*
64
$GPVTG,,T,,M,1.215,N,2.250,K,A*2PGGA,230530.00,2
712.37785,N,08227.10656,W,1,08,1.19,M,-26.9,M,,*72

$GPGSA,A,3,18,24,23,15,10,32,27,22,,,2.11,1.19,1.74*0
4
$GPGSV,4,1,15,05,02,101,,10,36,310,12,01,126,,15,25,047,23*
75
$GPGSV,4,2,15,18,70,166,22,22,1315,23,55,359,19,24,54,078,22*
7A
$GPGSV,4,3,15,25,00,162,,27,13,28,29,05,184,,32,32,253,24*
7F
$GPGSV,4,4,15,46,30,247,,48,34,244,,51,49,227,*4A

$GPGLL,2712.37785,N,08227.10656,W,23.00,A,A*7F

$GPRMC,230531.00,A,2712.37765,N,08227.10668,W,1.069,,130722,,,A*
6F
$GPVTG,,T,,M,1.069,N,1.980,K$GPGGA,230531.00,2712.37765,N,08227.10668,W,1,08,1.19,-13.9,M,-26.9,M,,*
7F
$GPGSA,A,3,18,24,23,15,10,32,27,,,,,2.11,1.19,1.74*04

$GPGSV,4,1,15,05,02,101,,10,36,319126,,15,25,047,23*75
